county,state_name,Location,lat,lng,population
Los Angeles,California,"Los Angeles, California",34.3207,-118.2248,10081570
Cook,Illinois,"Cook, Illinois",41.8401,-87.8168,5198275
Harris,Texas,"Harris, Texas",29.8577,-95.3936,4646630
Maricopa,Arizona,"Maricopa, Arizona",33.349,-112.4915,4328810
San Diego,California,"San Diego, California",33.0341,-116.7353,3316073
Orange,California,"Orange, California",33.703,-117.7611,3168044
Miami-Dade,Florida,"Miami-Dade, Florida",25.615,-80.5623,2699428
Dallas,Texas,"Dallas, Texas",32.7666,-96.7779,2606868
Kings,New York,"Kings, New York",40.6395,-73.9385,2589974
Riverside,California,"Riverside, California",33.7437,-115.9938,2411439
Queens,New York,"Queens, New York",40.7023,-73.8203,2287388
King,Washington,"King, Washington",47.4902,-121.8052,2195502
Clark,Nevada,"Clark, Nevada",36.2152,-115.0135,2182004
San Bernardino,California,"San Bernardino, California",34.8414,-116.1784,2149031
Tarrant,Texas,"Tarrant, Texas",32.7716,-97.2912,2049770
Bexar,Texas,"Bexar, Texas",29.4489,-98.52,1952843
Santa Clara,California,"Santa Clara, California",37.2318,-121.6951,1927470
Broward,Florida,"Broward, Florida",26.1523,-80.4871,1926205
Wayne,Michigan,"Wayne, Michigan",42.2819,-83.2821,1757299
Alameda,California,"Alameda, California",37.6469,-121.8889,1656754
New York,New York,"New York, New York",40.7781,-73.9675,1631993
Middlesex,Massachusetts,"Middlesex, Massachusetts",42.4856,-71.3918,1600842
Philadelphia,Pennsylvania,"Philadelphia, Pennsylvania",40.0077,-75.1339,1579075
Sacramento,California,"Sacramento, California",38.4493,-121.3443,1524553
Suffolk,New York,"Suffolk, New York",40.8686,-72.8448,1483832
Palm Beach,Florida,"Palm Beach, Florida",26.6476,-80.4655,1465027
Bronx,New York,"Bronx, New York",40.85,-73.866,1435068
Hillsborough,Florida,"Hillsborough, Florida",27.9291,-82.3092,1422278
Nassau,New York,"Nassau, New York",40.7328,-73.5864,1356509
Orange,Florida,"Orange, Florida",28.5144,-81.3235,1349746
Franklin,Ohio,"Franklin, Ohio",39.9695,-83.0093,1290360
Oakland,Michigan,"Oakland, Michigan",42.6604,-83.3858,1253185
Cuyahoga,Ohio,"Cuyahoga, Ohio",41.4245,-81.6586,1247451
Hennepin,Minnesota,"Hennepin, Minnesota",45.0046,-93.4769,1245837
Travis,Texas,"Travis, Texas",30.3347,-97.782,1226805
Allegheny,Pennsylvania,"Allegheny, Pennsylvania",40.4688,-79.9812,1221744
Fairfax,Virginia,"Fairfax, Virginia",38.8368,-77.277,1145862
Contra Costa,California,"Contra Costa, California",37.9191,-121.9278,1142251
Salt Lake,Utah,"Salt Lake, Utah",40.6673,-111.9236,1133646
Mecklenburg,North Carolina,"Mecklenburg, North Carolina",35.2467,-80.8328,1074475
Wake,North Carolina,"Wake, North Carolina",35.7903,-78.6503,1069079
Montgomery,Maryland,"Montgomery, Maryland",39.1363,-77.2042,1043530
Fulton,Georgia,"Fulton, Georgia",33.7903,-84.467,1036200
Pima,Arizona,"Pima, Arizona",32.0974,-111.7899,1027207
St. Louis,Missouri,"St. Louis, Missouri",38.6405,-90.4433,996919
Honolulu,Hawaii,"Honolulu, Hawaii",21.5008,-158.1053,984821
Fresno,California,"Fresno, California",36.7582,-119.6493,984521
Collin,Texas,"Collin, Texas",33.1879,-96.5724,973977
Westchester,New York,"Westchester, New York",41.1623,-73.7561,968890
Pinellas,Florida,"Pinellas, Florida",27.9196,-82.7256,964666
Marion,Indiana,"Marion, Indiana",39.7817,-86.1385,951869
Milwaukee,Wisconsin,"Milwaukee, Wisconsin",43.0072,-87.9668,951226
Fairfield,Connecticut,"Fairfield, Connecticut",41.2708,-73.3894,943926
Shelby,Tennessee,"Shelby, Tennessee",35.184,-89.8955,936374
Duval,Florida,"Duval, Florida",30.3316,-81.6708,936186
Bergen,New Jersey,"Bergen, New Jersey",40.9596,-74.0742,930390
DuPage,Illinois,"DuPage, Illinois",41.852,-88.0856,929060
Erie,New York,"Erie, New York",42.764,-78.7323,919355
Gwinnett,Georgia,"Gwinnett, Georgia",33.9617,-84.0236,915046
Prince George's,Maryland,"Prince George's, Maryland",38.8295,-76.8473,908670
Hartford,Connecticut,"Hartford, Connecticut",41.8064,-72.7329,893561
Kern,California,"Kern, California",35.3429,-118.7299,887641
Pierce,Washington,"Pierce, Washington",47.0241,-122.1046,877013
San Francisco,California,"San Francisco, California",37.7562,-122.443,874961
Macomb,Michigan,"Macomb, Michigan",42.6955,-82.9323,870325
New Haven,Connecticut,"New Haven, Connecticut",41.4105,-72.9321,857513
Hidalgo,Texas,"Hidalgo, Texas",26.3969,-98.1812,855176
Ventura,California,"Ventura, California",34.4565,-119.0836,847263
El Paso,Texas,"El Paso, Texas",31.7686,-106.2348,836062
Denton,Texas,"Denton, Texas",33.2052,-97.117,833822
Baltimore,Maryland,"Baltimore, Maryland",39.4627,-76.6393,828018
Middlesex,New Jersey,"Middlesex, New Jersey",40.4391,-74.4117,825920
Worcester,Massachusetts,"Worcester, Massachusetts",42.3514,-71.9077,824772
Montgomery,Pennsylvania,"Montgomery, Pennsylvania",40.2108,-75.3673,823823
Hamilton,Ohio,"Hamilton, Ohio",39.1955,-84.5428,813589
Multnomah,Oregon,"Multnomah, Oregon",45.5468,-122.4147,804606
Snohomish,Washington,"Snohomish, Washington",48.0475,-121.6975,798808
Suffolk,Massachusetts,"Suffolk, Massachusetts",42.3336,-71.0709,796605
Essex,New Jersey,"Essex, New Jersey",40.7872,-74.247,795404
Oklahoma,Oklahoma,"Oklahoma, Oklahoma",35.5515,-97.4072,787216
Essex,Massachusetts,"Essex, Massachusetts",42.6731,-70.952,783676
San Mateo,California,"San Mateo, California",37.4229,-122.329,767423
Jefferson,Kentucky,"Jefferson, Kentucky",38.1872,-85.6591,767419
Fort Bend,Texas,"Fort Bend, Texas",29.5275,-95.7709,765394
Cobb,Georgia,"Cobb, Georgia",33.9415,-84.5767,751218
DeKalb,Georgia,"DeKalb, Georgia",33.7715,-84.2264,749323
Monroe,New York,"Monroe, New York",43.1464,-77.6961,743341
San Joaquin,California,"San Joaquin, California",37.9348,-121.2714,742603
Lee,Florida,"Lee, Florida",26.5778,-81.8337,737468
Denver,Colorado,"Denver, Colorado",39.7621,-104.8759,705576
Lake,Illinois,"Lake, Illinois",42.3233,-88.0037,701473
Norfolk,Massachusetts,"Norfolk, Massachusetts",42.1607,-71.2111,700437
El Paso,Colorado,"El Paso, Colorado",38.8321,-104.5255,698974
Jackson,Missouri,"Jackson, Missouri",39.0085,-94.3461,696216
District of Columbia,District of Columbia,"District of Columbia, District of Columbia",38.9047,-77.0163,692683
Will,Illinois,"Will, Illinois",41.445,-87.9786,689315
Davidson,Tennessee,"Davidson, Tennessee",36.1695,-86.7848,687488
Polk,Florida,"Polk, Florida",27.9489,-81.6976,686218
Bernalillo,New Mexico,"Bernalillo, New Mexico",35.0513,-106.6701,677858
Hudson,New Jersey,"Hudson, New Jersey",40.7351,-74.0777,670046
Jefferson,Alabama,"Jefferson, Alabama",33.5543,-86.8964,659680
Kent,Michigan,"Kent, Michigan",43.0322,-85.5493,648121
Tulsa,Oklahoma,"Tulsa, Oklahoma",36.1211,-95.9415,646419
Arapahoe,Colorado,"Arapahoe, Colorado",39.6498,-104.3392,644560
Providence,Rhode Island,"Providence, Rhode Island",41.8721,-71.58,635737
Bucks,Pennsylvania,"Bucks, Pennsylvania",40.337,-75.1069,626806
Monmouth,New Jersey,"Monmouth, New Jersey",40.2603,-74.2213,621659
Baltimore,Maryland,"Baltimore, Maryland",39.3051,-76.6144,609032
Utah,Utah,"Utah, Utah",40.1199,-111.6703,605490
Ocean,New Jersey,"Ocean, New Jersey",39.8855,-74.2813,596415
Johnson,Kansas,"Johnson, Kansas",38.8838,-94.8223,591506
Washington,Oregon,"Washington, Oregon",45.5601,-123.0984,589481
Brevard,Florida,"Brevard, Florida",28.2937,-80.7323,585507
Jefferson,Colorado,"Jefferson, Colorado",39.5864,-105.2505,574798
Montgomery,Texas,"Montgomery, Texas",30.3002,-95.503,571949
Anne Arundel,Maryland,"Anne Arundel, Maryland",39.0065,-76.6051,571275
Delaware,Pennsylvania,"Delaware, Pennsylvania",39.9167,-75.3991,564554
Bristol,Massachusetts,"Bristol, Massachusetts",41.7972,-71.1144,561037
Douglas,Nebraska,"Douglas, Nebraska",41.2953,-96.1543,560617
New Castle,Delaware,"New Castle, Delaware",39.5768,-75.6527,556165
Union,New Jersey,"Union, New Jersey",40.66,-74.3085,554033
Williamson,Texas,"Williamson, Texas",30.648,-97.6008,547604
Ramsey,Minnesota,"Ramsey, Minnesota",45.0171,-93.0996,544442
Stanislaus,California,"Stanislaus, California",37.5591,-120.9977,543194
Summit,Ohio,"Summit, Ohio",41.126,-81.5322,541334
Lancaster,Pennsylvania,"Lancaster, Pennsylvania",40.0424,-76.2477,540999
Volusia,Florida,"Volusia, Florida",29.0584,-81.1819,536487
Dane,Wisconsin,"Dane, Wisconsin",43.0673,-89.4181,536078
Montgomery,Ohio,"Montgomery, Ohio",39.7546,-84.2906,531670
Kane,Illinois,"Kane, Illinois",41.9388,-88.4286,531376
Guilford,North Carolina,"Guilford, North Carolina",36.0795,-79.7889,527868
Pasco,Florida,"Pasco, Florida",28.3091,-82.3932,524602
Chester,Pennsylvania,"Chester, Pennsylvania",39.9731,-75.7484,519560
Plymouth,Massachusetts,"Plymouth, Massachusetts",41.9512,-70.8114,515303
Sedgwick,Kansas,"Sedgwick, Kansas",37.6848,-97.461,513375
Greenville,South Carolina,"Greenville, South Carolina",34.8944,-82.3707,507003
Camden,New Jersey,"Camden, New Jersey",39.8035,-74.9597,506738
Spokane,Washington,"Spokane, Washington",47.6207,-117.404,505505
Adams,Colorado,"Adams, Colorado",39.8736,-104.3378,504108
Passaic,New Jersey,"Passaic, New Jersey",41.0344,-74.3008,503637
Sonoma,California,"Sonoma, California",38.5283,-122.8874,499772
Morris,New Jersey,"Morris, New Jersey",40.862,-74.5445,493379
Lake,Indiana,"Lake, Indiana",41.4171,-87.3822,485707
Polk,Iowa,"Polk, Iowa",41.6855,-93.5735,479612
Richmond,New York,"Richmond, New York",40.5808,-74.1524,474893
Clark,Washington,"Clark, Washington",45.7793,-122.4825,473252
Hampden,Massachusetts,"Hampden, Massachusetts",42.1351,-72.6316,467871
Onondaga,New York,"Onondaga, New York",43.0058,-76.1946,462872
Tulare,California,"Tulare, California",36.2201,-118.8005,461898
Prince William,Virginia,"Prince William, Virginia",38.703,-77.4809,461423
Seminole,Florida,"Seminole, Florida",28.717,-81.2363,461402
Knox,Tennessee,"Knox, Tennessee",35.9932,-83.9371,461104
Washoe,Nevada,"Washoe, Nevada",40.6657,-119.6643,456936
Ada,Idaho,"Ada, Idaho",43.4511,-116.2412,456849
Virginia Beach,Virginia,"Virginia Beach, Virginia",36.7335,-76.0435,450201
Burlington,New Jersey,"Burlington, New Jersey",39.8777,-74.6681,445702
York,Pennsylvania,"York, Pennsylvania",39.92,-76.7265,445565
Santa Barbara,California,"Santa Barbara, California",34.6729,-120.0165,444829
East Baton Rouge,Louisiana,"East Baton Rouge, Louisiana",30.5383,-91.0956,443763
Solano,California,"Solano, California",38.27,-121.9329,441829
Jefferson,Louisiana,"Jefferson, Louisiana",29.7872,-90.1274,434850
Monterey,California,"Monterey, California",36.2172,-121.2392,433410
Pinal,Arizona,"Pinal, Arizona",32.9044,-111.3448,432793
Lucas,Ohio,"Lucas, Ohio",41.6199,-83.6583,431102
Cameron,Texas,"Cameron, Texas",26.1334,-97.5181,421666
Dakota,Minnesota,"Dakota, Minnesota",44.6719,-93.0654,421453
Sarasota,Florida,"Sarasota, Florida",27.1845,-82.3315,419496
Berks,Pennsylvania,"Berks, Pennsylvania",40.4163,-75.926,418025
Mobile,Alabama,"Mobile, Alabama",30.7872,-88.2058,414114
Hillsborough,New Hampshire,"Hillsborough, New Hampshire",42.9153,-71.7161,413035
Richland,South Carolina,"Richland, South Carolina",34.0218,-80.9031,411357
Clackamas,Oregon,"Clackamas, Oregon",45.188,-122.2209,410463
Genesee,Michigan,"Genesee, Michigan",43.0217,-83.7067,407875
Charleston,South Carolina,"Charleston, South Carolina",32.8346,-79.9531,401165
Waukesha,Wisconsin,"Waukesha, Wisconsin",43.0182,-88.3045,400475
Loudoun,Virginia,"Loudoun, Virginia",39.0907,-77.6357,395134
St. Charles,Missouri,"St. Charles, Missouri",38.7819,-90.6749,394290
Pulaski,Arkansas,"Pulaski, Arkansas",34.77,-92.3119,392967
Orleans,Louisiana,"Orleans, Louisiana",30.0687,-89.9288,390845
Placer,California,"Placer, California",39.0635,-120.7175,385512
Manatee,Florida,"Manatee, Florida",27.4719,-82.3153,384213
Orange,New York,"Orange, New York",41.4021,-74.3055,380085
Butler,Ohio,"Butler, Ohio",39.4386,-84.5756,380019
Forsyth,North Carolina,"Forsyth, North Carolina",36.1306,-80.2563,375195
Lane,Oregon,"Lane, Oregon",43.9388,-122.8475,373340
Allen,Indiana,"Allen, Indiana",41.0909,-85.0666,372575
Stark,Ohio,"Stark, Ohio",40.8139,-81.3656,372404
Collier,Florida,"Collier, Florida",26.1107,-81.3476,371453
Mercer,New Jersey,"Mercer, New Jersey",40.2834,-74.7018,367922
Washtenaw,Michigan,"Washtenaw, Michigan",42.2532,-83.8388,367000
Lehigh,Pennsylvania,"Lehigh, Pennsylvania",40.6127,-75.5923,365052
Madison,Alabama,"Madison, Alabama",34.7631,-86.5502,362276
Nueces,Texas,"Nueces, Texas",27.7255,-97.6132,361540
Hamilton,Tennessee,"Hamilton, Tennessee",35.1808,-85.1648,360919
Brazoria,Texas,"Brazoria, Texas",29.1897,-95.4519,360677
Marion,Florida,"Marion, Florida",29.2102,-82.0567,353526
Westmoreland,Pennsylvania,"Westmoreland, Pennsylvania",40.3107,-79.467,352590
Osceola,Florida,"Osceola, Florida",28.0627,-81.1495,351955
Anoka,Minnesota,"Anoka, Minnesota",45.2733,-93.2465,350253
Bell,Texas,"Bell, Texas",31.0377,-97.4782,348574
Lake,Florida,"Lake, Florida",28.7615,-81.7113,345867
Davis,Utah,"Davis, Utah",40.99,-112.1115,345767
Larimer,Colorado,"Larimer, Colorado",40.6664,-105.4611,344786
Chesterfield,Virginia,"Chesterfield, Virginia",37.3785,-77.587,343551
Marion,Oregon,"Marion, Oregon",44.9033,-122.5849,339641
Douglas,Colorado,"Douglas, Colorado",39.3297,-104.9296,336041
Galveston,Texas,"Galveston, Texas",29.3931,-94.9629,332885
Cumberland,North Carolina,"Cumberland, North Carolina",35.0486,-78.8276,332861
Horry,South Carolina,"Horry, South Carolina",33.9215,-78.9965,332172
Somerset,New Jersey,"Somerset, New Jersey",40.5635,-74.6163,329838
Henrico,Virginia,"Henrico, Virginia",37.538,-77.4058,327535
Rockland,New York,"Rockland, New York",41.1524,-74.0241,324422
Hamilton,Indiana,"Hamilton, Indiana",40.0725,-86.052,323117
Boulder,Colorado,"Boulder, Colorado",40.0925,-105.3577,322510
Fayette,Kentucky,"Fayette, Kentucky",38.0423,-84.4587,320601
Howard,Maryland,"Howard, Maryland",39.2507,-76.9312,318855
Luzerne,Pennsylvania,"Luzerne, Pennsylvania",41.177,-75.989,317663
Rutherford,Tennessee,"Rutherford, Tennessee",35.8427,-86.4167,315815
Escambia,Florida,"Escambia, Florida",30.6689,-87.3628,313491
Lancaster,Nebraska,"Lancaster, Nebraska",40.7842,-96.6878,313158
St. Lucie,Florida,"St. Lucie, Florida",27.3773,-80.472,312947
Durham,North Carolina,"Durham, North Carolina",36.036,-78.8766,311848
St. Louis,Missouri,"St. Louis, Missouri",38.6358,-90.2451,308174
McHenry,Illinois,"McHenry, Illinois",42.3244,-88.4523,307714
Lorain,Ohio,"Lorain, Ohio",41.2956,-82.1512,307670
Spartanburg,South Carolina,"Spartanburg, South Carolina",34.9312,-81.9908,307617
Albany,New York,"Albany, New York",42.6002,-73.9736,306968
Rockingham,New Hampshire,"Rockingham, New Hampshire",42.9876,-71.1254,306359
Weld,Colorado,"Weld, Colorado",40.5548,-104.3925,305345
Lubbock,Texas,"Lubbock, Texas",33.6102,-101.8205,304808
Northampton,Pennsylvania,"Northampton, Pennsylvania",40.7542,-75.3076,302809
Dutchess,New York,"Dutchess, New York",41.7651,-73.7429,293754
Anchorage,Alaska,"Anchorage, Alaska",61.1508,-149.1091,293531
Cumberland,Maine,"Cumberland, Maine",43.8464,-70.3988,292307
Gloucester,New Jersey,"Gloucester, New Jersey",39.7173,-75.1414,291165
Ingham,Michigan,"Ingham, Michigan",42.5971,-84.3735,290587
Lexington,South Carolina,"Lexington, South Carolina",33.9023,-81.2722,290278
Leon,Florida,"Leon, Florida",30.458,-84.2779,289770
Greene,Missouri,"Greene, Missouri",37.258,-93.342,289756
Chatham,Georgia,"Chatham, Georgia",32.0042,-81.1328,288496
Ottawa,Michigan,"Ottawa, Michigan",42.9598,-85.9961,286558
Winnebago,Illinois,"Winnebago, Illinois",42.3363,-89.1609,284819
Clayton,Georgia,"Clayton, Georgia",33.5419,-84.3576,283538
San Luis Obispo,California,"San Luis Obispo, California",35.3871,-120.4045,282165
Thurston,Washington,"Thurston, Washington",46.9258,-122.8332,279711
Cleveland,Oklahoma,"Cleveland, Oklahoma",35.2031,-97.3265,279274
Dauphin,Pennsylvania,"Dauphin, Pennsylvania",40.4155,-76.7795,275632
Santa Cruz,California,"Santa Cruz, California",37.0562,-122.0018,273962
Erie,Pennsylvania,"Erie, Pennsylvania",41.9926,-80.0328,273835
Webb,Texas,"Webb, Texas",27.7611,-99.3315,273526
Merced,California,"Merced, California",37.1919,-120.7177,271382
St. Joseph,Indiana,"St. Joseph, Indiana",41.6167,-86.2899,270216
New London,Connecticut,"New London, Connecticut",41.4866,-72.1015,267390
Atlantic,New Jersey,"Atlantic, New Jersey",39.4777,-74.661,266105
Kitsap,Washington,"Kitsap, Washington",47.6132,-122.6717,265882
York,South Carolina,"York, South Carolina",34.9747,-81.1844,265872
Benton,Arkansas,"Benton, Arkansas",36.3387,-94.2561,265759
Alachua,Florida,"Alachua, Florida",29.6747,-82.3577,265443
Madison,Illinois,"Madison, Illinois",38.8297,-89.9049,264776
Kalamazoo,Michigan,"Kalamazoo, Michigan",42.2455,-85.5312,262745
St. Clair,Illinois,"St. Clair, Illinois",38.4703,-89.9284,262338
Brown,Wisconsin,"Brown, Wisconsin",44.4529,-88.0037,261368
Marin,California,"Marin, California",38.0734,-122.7234,259943
Buncombe,North Carolina,"Buncombe, North Carolina",35.6112,-82.5301,256886
Washington,Minnesota,"Washington, Minnesota",45.0387,-92.8839,255938
St. Tammany,Louisiana,"St. Tammany, Louisiana",30.4102,-89.9583,255155
Jefferson,Texas,"Jefferson, Texas",29.8841,-94.1629,254340
Harford,Maryland,"Harford, Maryland",39.5611,-76.3171,252222
Weber,Utah,"Weber, Utah",41.2698,-111.9134,251498
Frederick,Maryland,"Frederick, Maryland",39.4722,-77.398,251422
McLennan,Texas,"McLennan, Texas",31.5524,-97.2018,251089
Yakima,Washington,"Yakima, Washington",46.4571,-120.7384,249697
Cumberland,Pennsylvania,"Cumberland, Pennsylvania",40.1636,-77.2655,249328
Cherokee,Georgia,"Cherokee, Georgia",34.2439,-84.4762,247515
Caddo,Louisiana,"Caddo, Louisiana",32.5801,-93.8823,245831
St. Johns,Florida,"St. Johns, Florida",29.9016,-81.4407,244674
Norfolk,Virginia,"Norfolk, Virginia",36.8945,-76.259,244601
Clay,Missouri,"Clay, Missouri",39.3105,-94.4209,242516
Lafayette,Louisiana,"Lafayette, Louisiana",30.2068,-92.0639,241973
Chesapeake,Virginia,"Chesapeake, Virginia",36.6778,-76.3024,239982
Hinds,Mississippi,"Hinds, Mississippi",32.2667,-90.4428,238797
Arlington,Virginia,"Arlington, Virginia",38.8786,-77.1011,233464
Washington,Arkansas,"Washington, Arkansas",35.9791,-94.2156,232289
Union,North Carolina,"Union, North Carolina",34.9884,-80.5307,231053
Mahoning,Ohio,"Mahoning, Ohio",41.0146,-80.7763,229961
Oneida,New York,"Oneida, New York",43.2417,-75.4359,229959
Lake,Ohio,"Lake, Ohio",41.6966,-81.2373,229954
Warren,Ohio,"Warren, Ohio",39.4276,-84.1668,229132
Saratoga,New York,"Saratoga, New York",43.1074,-73.8639,228502
Forsyth,Georgia,"Forsyth, Georgia",34.2255,-84.125,228383
Yavapai,Arizona,"Yavapai, Arizona",34.5999,-112.554,228067
New Hanover,North Carolina,"New Hanover, North Carolina",34.2328,-77.8847,227938
Smith,Texas,"Smith, Texas",32.375,-95.2692,227449
Montgomery,Alabama,"Montgomery, Alabama",32.2203,-86.2076,226941
Richmond,Virginia,"Richmond, Virginia",37.5295,-77.4756,226622
Butte,California,"Butte, California",39.6669,-121.6007,225817
Williamson,Tennessee,"Williamson, Tennessee",35.8938,-86.8986,225389
Henry,Georgia,"Henry, Georgia",33.453,-84.1542,225356
Sussex,Delaware,"Sussex, Delaware",38.6606,-75.39,224384
Jefferson,Missouri,"Jefferson, Missouri",38.2611,-90.5377,223951
Linn,Iowa,"Linn, Iowa",42.079,-91.599,223861
Brazos,Texas,"Brazos, Texas",30.6608,-96.3024,222981
Whatcom,Washington,"Whatcom, Washington",48.8259,-121.7199,220821
Gaston,North Carolina,"Gaston, North Carolina",35.2944,-81.1803,219271
Canyon,Idaho,"Canyon, Idaho",43.6251,-116.7093,217633
Yolo,California,"Yolo, California",38.6866,-121.9016,217352
Jackson,Oregon,"Jackson, Oregon",42.4322,-122.7285,216574
Doña Ana,New Mexico,"Doña Ana, New Mexico",32.3526,-106.8328,216069
Berkeley,South Carolina,"Berkeley, South Carolina",33.1973,-79.9522,215044
Barnstable,Massachusetts,"Barnstable, Massachusetts",41.7242,-70.2915,213496
Shelby,Alabama,"Shelby, Alabama",33.2643,-86.6607,213432
Hays,Texas,"Hays, Texas",30.0581,-98.0311,213366
Baldwin,Alabama,"Baldwin, Alabama",30.7275,-87.7226,212830
Clay,Florida,"Clay, Florida",29.9831,-81.8579,211405
Niagara,New York,"Niagara, New York",43.2001,-78.7452,210820
Lackawanna,Pennsylvania,"Lackawanna, Pennsylvania",41.4368,-75.6092,210652
Champaign,Illinois,"Champaign, Illinois",40.1401,-88.1992,209922
Yuma,Arizona,"Yuma, Arizona",32.7695,-113.9056,209468
Mohave,Arizona,"Mohave, Arizona",35.7041,-113.758,207695
Tuscaloosa,Alabama,"Tuscaloosa, Alabama",33.2896,-87.5251,207305
Washington,Pennsylvania,"Washington, Pennsylvania",40.1894,-80.2482,207212
Cabarrus,North Carolina,"Cabarrus, North Carolina",35.3868,-80.5519,206615
Elkhart,Indiana,"Elkhart, Indiana",41.5974,-85.8587,204558
Harrison,Mississippi,"Harrison, Mississippi",30.5118,-89.1159,204502
York,Maine,"York, Maine",43.4782,-70.7144,204316
Clermont,Ohio,"Clermont, Ohio",39.0475,-84.1519,204275
Okaloosa,Florida,"Okaloosa, Florida",30.6913,-86.5917,203794
Richmond,Georgia,"Richmond, Georgia",33.3596,-82.0735,201852
Calcasieu,Louisiana,"Calcasieu, Louisiana",30.2292,-93.3579,201619
Delaware,Ohio,"Delaware, Ohio",40.2784,-83.0049,201135
Trumbull,Ohio,"Trumbull, Ohio",41.3172,-80.7611,200367
Montgomery,Tennessee,"Montgomery, Tennessee",36.4969,-87.3828,200180
St. Louis,Minnesota,"St. Louis, Minnesota",47.6032,-92.4706,199759
Hawaii,Hawaii,"Hawaii, Hawaii",19.5987,-155.5185,199459
Hall,Georgia,"Hall, Georgia",34.3169,-83.8197,198667
Anderson,South Carolina,"Anderson, South Carolina",34.5193,-82.6378,198064
Benton,Washington,"Benton, Washington",46.2398,-119.5112,197518
Johnston,North Carolina,"Johnston, North Carolina",35.5178,-78.3657,196870
Sangamon,Illinois,"Sangamon, Illinois",39.7582,-89.6589,196861
Muscogee,Georgia,"Muscogee, Georgia",32.51,-84.8771,195739
Racine,Wisconsin,"Racine, Wisconsin",42.7475,-88.0612,195602
Onslow,North Carolina,"Onslow, North Carolina",34.7321,-77.4321,195069
Broome,New York,"Broome, New York",42.1602,-75.8196,193188
Saginaw,Michigan,"Saginaw, Michigan",43.335,-84.0532,191821
Tippecanoe,Indiana,"Tippecanoe, Indiana",40.3886,-86.8941,191553
Livingston,Michigan,"Livingston, Michigan",42.6029,-83.9115,189754
Minnehaha,South Dakota,"Minnehaha, South Dakota",43.6742,-96.7915,188674
El Dorado,California,"El Dorado, California",38.7787,-120.5247,188563
Butler,Pennsylvania,"Butler, Pennsylvania",40.9118,-79.9133,186899
Hernando,Florida,"Hernando, Florida",28.5536,-82.425,186313
Deschutes,Oregon,"Deschutes, Oregon",43.9151,-121.2281,186251
Beaufort,South Carolina,"Beaufort, South Carolina",32.3855,-80.7302,186095
Outagamie,Wisconsin,"Outagamie, Wisconsin",44.4161,-88.4649,185700
Sumner,Tennessee,"Sumner, Tennessee",36.4694,-86.4604,183437
Kanawha,West Virginia,"Kanawha, West Virginia",38.3366,-81.5281,183279
Peoria,Illinois,"Peoria, Illinois",40.788,-89.76,182770
Bay,Florida,"Bay, Florida",30.2652,-85.6203,182161
Litchfield,Connecticut,"Litchfield, Connecticut",41.7925,-73.2453,182002
Vanderburgh,Indiana,"Vanderburgh, Indiana",38.025,-87.5858,181291
Sarpy,Nebraska,"Sarpy, Nebraska",41.1129,-96.112,181232
Charlotte,Florida,"Charlotte, Florida",26.9055,-81.9123,181067
Imperial,California,"Imperial, California",33.0395,-115.3654,180701
Newport News,Virginia,"Newport News, Virginia",37.1051,-76.5185,179673
Shasta,California,"Shasta, California",40.7637,-122.0405,179212
DeSoto,Mississippi,"DeSoto, Mississippi",34.8754,-89.9918,178975
Ulster,New York,"Ulster, New York",41.8881,-74.2586,178665
Pitt,North Carolina,"Pitt, North Carolina",35.5933,-77.3745,178433
Medina,Ohio,"Medina, Ohio",41.1176,-81.8997,177980
Shawnee,Kansas,"Shawnee, Kansas",39.0415,-95.7565,177852
Boone,Missouri,"Boone, Missouri",38.9906,-92.3097,177651
Cass,North Dakota,"Cass, North Dakota",46.933,-97.248,176975
Kent,Delaware,"Kent, Delaware",39.0862,-75.5684,176699
Iredell,North Carolina,"Iredell, North Carolina",35.807,-80.8734,175538
Santa Rosa,Florida,"Santa Rosa, Florida",30.7004,-87.022,174755
Ellis,Texas,"Ellis, Texas",32.3484,-96.7945,173772
Licking,Ohio,"Licking, Ohio",40.0916,-82.4831,173750
Muskegon,Michigan,"Muskegon, Michigan",43.2912,-86.152,173297
McLean,Illinois,"McLean, Illinois",40.4909,-88.8473,172578
Scott,Iowa,"Scott, Iowa",41.6371,-90.6232,172446
Winnebago,Wisconsin,"Winnebago, Wisconsin",44.0689,-88.6446,170411
Porter,Indiana,"Porter, Indiana",41.4605,-87.0673,168636
Kenosha,Wisconsin,"Kenosha, Wisconsin",42.5769,-88.0424,168524
Aiken,South Carolina,"Aiken, South Carolina",33.5443,-81.6347,168301
Midland,Texas,"Midland, Texas",31.8691,-102.0316,168167
Monroe,Pennsylvania,"Monroe, Pennsylvania",41.0581,-75.3395,168032
Carroll,Maryland,"Carroll, Maryland",39.5629,-77.0225,167699
Johnson,Texas,"Johnson, Texas",32.379,-97.3663,167212
Greene,Ohio,"Greene, Ohio",39.6915,-83.8899,166502
Pueblo,Colorado,"Pueblo, Colorado",38.1735,-104.5128,165982
Maui,Hawaii,"Maui, Hawaii",20.8596,-156.5648,165979
Beaver,Pennsylvania,"Beaver, Pennsylvania",40.6823,-80.3493,165833
Washington,Utah,"Washington, Utah",37.2804,-113.5048,165811
Kenton,Kentucky,"Kenton, Kentucky",38.9334,-84.5333,165668
Davidson,North Carolina,"Davidson, North Carolina",35.7934,-80.2127,165381
Wyandotte,Kansas,"Wyandotte, Kansas",39.1146,-94.7646,164861
Kent,Rhode Island,"Kent, Rhode Island",41.6722,-71.593,163869
Hendricks,Indiana,"Hendricks, Indiana",39.7695,-86.51,163799
Alamance,North Carolina,"Alamance, North Carolina",36.0437,-79.3994,163324
Middlesex,Connecticut,"Middlesex, Connecticut",41.4632,-72.5351,163053
Chittenden,Vermont,"Chittenden, Vermont",44.461,-73.0809,162646
Portage,Ohio,"Portage, Ohio",41.1677,-81.1974,162511
Rock,Wisconsin,"Rock, Wisconsin",42.6712,-89.0716,162152
Centre,Pennsylvania,"Centre, Pennsylvania",40.9193,-77.82,161960
Lee,Alabama,"Lee, Alabama",32.6011,-85.3555,161152
Hampshire,Massachusetts,"Hampshire, Massachusetts",42.3402,-72.6638,161032
Ector,Texas,"Ector, Texas",31.8692,-102.5429,160579
Paulding,Georgia,"Paulding, Georgia",33.9205,-84.8673,159825
Charles,Maryland,"Charles, Maryland",38.5073,-76.9922,159428
St. Clair,Michigan,"St. Clair, Michigan",42.9341,-82.6805,159247
Rensselaer,New York,"Rensselaer, New York",42.7111,-73.5097,159185
Martin,Florida,"Martin, Florida",27.0775,-80.4315,159065
Yellowstone,Montana,"Yellowstone, Montana",45.9373,-108.2744,159008
Guadalupe,Texas,"Guadalupe, Texas",29.5831,-97.9486,158966
Jackson,Michigan,"Jackson, Michigan",42.2485,-84.4234,158636
Stearns,Minnesota,"Stearns, Minnesota",45.5521,-94.613,158452
Dorchester,South Carolina,"Dorchester, South Carolina",33.0793,-80.4067,158299
Alexandria,Virginia,"Alexandria, Virginia",38.8185,-77.0861,157613
Catawba,North Carolina,"Catawba, North Carolina",35.662,-81.2151,157613
Kootenai,Idaho,"Kootenai, Idaho",47.6744,-116.7018,157322
Sullivan,Tennessee,"Sullivan, Tennessee",36.5129,-82.3042,157050
Ouachita,Louisiana,"Ouachita, Louisiana",32.4783,-92.1549,155494
Madera,California,"Madera, California",37.218,-119.7627,155433
Schenectady,New York,"Schenectady, New York",42.8181,-74.0586,154859
Olmsted,Minnesota,"Olmsted, Minnesota",44.0038,-92.4018,154809
Fairfield,Ohio,"Fairfield, Ohio",39.7516,-82.6306,154457
Franklin,Pennsylvania,"Franklin, Pennsylvania",39.9274,-77.7213,154147
Berrien,Michigan,"Berrien, Michigan",41.9547,-86.4123,154133
Indian River,Florida,"Indian River, Florida",27.6943,-80.6062,153989
Johnson,Indiana,"Johnson, Indiana",39.49,-86.1016,153716
Houston,Georgia,"Houston, Georgia",32.459,-83.6662,153507
Bibb,Georgia,"Bibb, Georgia",32.8065,-83.6974,153200
Rankin,Mississippi,"Rankin, Mississippi",32.2641,-89.9458,152677
Cumberland,New Jersey,"Cumberland, New Jersey",39.3738,-75.1108,151906
Penobscot,Maine,"Penobscot, Maine",45.4006,-68.6495,151774
Mesa,Colorado,"Mesa, Colorado",39.0183,-108.4664,151218
Tolland,Connecticut,"Tolland, Connecticut",41.855,-72.3365,151063
Columbia,Georgia,"Columbia, Georgia",33.5441,-82.264,150705
Kings,California,"Kings, California",36.0753,-119.8155,150691
Washington,Maryland,"Washington, Maryland",39.6036,-77.814,150109
Merrimack,New Hampshire,"Merrimack, New Hampshire",43.2975,-71.6802,149917
Monroe,Michigan,"Monroe, Michigan",41.9287,-83.5375,149727
Santa Fe,New Mexico,"Santa Fe, New Mexico",35.5069,-105.9763,149293
Johnson,Iowa,"Johnson, Iowa",41.6715,-91.5881,148577
Stafford,Virginia,"Stafford, Virginia",38.4207,-77.458,146773
Monroe,Indiana,"Monroe, Indiana",39.1609,-86.5231,146461
Scott,Minnesota,"Scott, Minnesota",44.6485,-93.5359,145275
Citrus,Florida,"Citrus, Florida",28.8489,-82.4794,145169
Orange,North Carolina,"Orange, North Carolina",36.0611,-79.1207,144836
Rock Island,Illinois,"Rock Island, Illinois",41.4673,-90.5674,143873
Douglas,Georgia,"Douglas, Georgia",33.7018,-84.768,143316
Coweta,Georgia,"Coweta, Georgia",33.3535,-84.7634,143260
Randolph,North Carolina,"Randolph, North Carolina",35.7103,-79.806,143118
Sandoval,New Mexico,"Sandoval, New Mexico",35.6886,-106.8659,142704
Schuylkill,Pennsylvania,"Schuylkill, Pennsylvania",40.7058,-76.216,142674
Jackson,Mississippi,"Jackson, Mississippi",30.5423,-88.6357,142376
Comal,Texas,"Comal, Texas",29.8082,-98.2783,141642
Sussex,New Jersey,"Sussex, New Jersey",41.1393,-74.6909,141483
Coconino,Arizona,"Coconino, Arizona",35.8387,-111.7705,141274
Canadian,Oklahoma,"Canadian, Oklahoma",35.5424,-97.9824,140455
Rowan,North Carolina,"Rowan, North Carolina",35.6395,-80.5248,140296
Lebanon,Pennsylvania,"Lebanon, Pennsylvania",40.3672,-76.4577,139729
Napa,California,"Napa, California",38.5065,-122.3305,139623
Livingston,Louisiana,"Livingston, Louisiana",30.4401,-90.7279,138928
Florence,South Carolina,"Florence, South Carolina",34.0245,-79.703,138475
Taylor,Texas,"Taylor, Texas",32.3015,-99.8901,136870
Wilson,Tennessee,"Wilson, Tennessee",36.1549,-86.2978,136666
Humboldt,California,"Humboldt, California",40.6993,-123.8756,135940
Marathon,Wisconsin,"Marathon, Wisconsin",44.8983,-89.7591,135396
Hampton,Virginia,"Hampton, Virginia",37.0551,-76.363,135041
Washington,Wisconsin,"Washington, Wisconsin",43.3685,-88.2307,134925
Clark,Ohio,"Clark, Ohio",39.9168,-83.7838,134726
Wright,Minnesota,"Wright, Minnesota",45.174,-93.9631,134438
Calhoun,Michigan,"Calhoun, Michigan",42.2465,-85.0056,134212
Randall,Texas,"Randall, Texas",34.9659,-101.897,134026
Parker,Texas,"Parker, Texas",32.7777,-97.8051,133811
Tazewell,Illinois,"Tazewell, Illinois",40.5075,-89.5134,133195
Cambria,Pennsylvania,"Cambria, Pennsylvania",40.4953,-78.7137,133009
Spotsylvania,Virginia,"Spotsylvania, Virginia",38.185,-77.6561,132833
Robeson,North Carolina,"Robeson, North Carolina",34.6402,-79.1039,132596
Black Hawk,Iowa,"Black Hawk, Iowa",42.4701,-92.3088,132393
Harnett,North Carolina,"Harnett, North Carolina",35.3686,-78.8694,132283
Tangipahoa,Louisiana,"Tangipahoa, Louisiana",30.6266,-90.4057,132057
Brunswick,North Carolina,"Brunswick, North Carolina",34.071,-78.2377,131815
Wichita,Texas,"Wichita, Texas",33.9879,-98.7036,131596
Fayette,Pennsylvania,"Fayette, Pennsylvania",39.9199,-79.6473,131302
Grayson,Texas,"Grayson, Texas",33.6268,-96.6777,131014
Rapides,Louisiana,"Rapides, Louisiana",31.1986,-92.5332,130970
Boone,Kentucky,"Boone, Kentucky",38.9699,-84.7278,130820
Wood,Ohio,"Wood, Ohio",41.3617,-83.623,130150
Blount,Tennessee,"Blount, Tennessee",35.6872,-83.9255,129927
Madison,Indiana,"Madison, Indiana",40.1616,-85.7194,129455
Strafford,New Hampshire,"Strafford, New Hampshire",43.297,-71.0289,129124
Warren,Kentucky,"Warren, Kentucky",36.9936,-86.4238,128652
Chautauqua,New York,"Chautauqua, New York",42.2282,-79.3663,128496
Washington,Tennessee,"Washington, Tennessee",36.2933,-82.4974,127805
Sebastian,Arkansas,"Sebastian, Arkansas",35.1993,-94.2742,127591
San Juan,New Mexico,"San Juan, New Mexico",36.5085,-108.3206,126515
Bossier,Louisiana,"Bossier, Louisiana",32.6789,-93.605,126499
Berkshire,Massachusetts,"Berkshire, Massachusetts",42.3707,-73.2064,126425
Clarke,Georgia,"Clarke, Georgia",33.9512,-83.3673,126176
Washington,Rhode Island,"Washington, Rhode Island",41.4697,-71.6226,126060
Kendall,Illinois,"Kendall, Illinois",41.5906,-88.4288,126054
Cochise,Arizona,"Cochise, Arizona",31.8796,-109.7512,125867
Skagit,Washington,"Skagit, Washington",48.4794,-121.7302,125612
Linn,Oregon,"Linn, Oregon",44.4889,-122.535,125048
Sumter,Florida,"Sumter, Florida",28.7048,-82.081,125044
Hunterdon,New Jersey,"Hunterdon, New Jersey",40.5673,-74.9122,124823
Cache,Utah,"Cache, Utah",41.7224,-111.7436,124165
Pickens,South Carolina,"Pickens, South Carolina",34.8873,-82.7252,124029
Kaufman,Texas,"Kaufman, Texas",32.5993,-96.2878,123804
Faulkner,Arkansas,"Faulkner, Arkansas",35.147,-92.332,123624
Wayne,North Carolina,"Wayne, North Carolina",35.364,-78.004,123603
Gregg,Texas,"Gregg, Texas",32.4805,-94.817,123443
Blair,Pennsylvania,"Blair, Pennsylvania",40.481,-78.3486,123157
Ascension,Louisiana,"Ascension, Louisiana",30.2036,-90.9113,123114
Comanche,Oklahoma,"Comanche, Oklahoma",34.6621,-98.4717,121762
Kennebec,Maine,"Kennebec, Maine",44.4091,-69.7673,121753
Richland,Ohio,"Richland, Ohio",40.7747,-82.5365,121100
Douglas,Kansas,"Douglas, Kansas",38.8847,-95.2926,120290
Jasper,Missouri,"Jasper, Missouri",37.2036,-94.3406,119920
Potter,Texas,"Potter, Texas",35.4013,-101.8939,119674
Saline,Arkansas,"Saline, Arkansas",34.6466,-92.6765,119415
Morgan,Alabama,"Morgan, Alabama",34.4535,-86.8529,119213
Oswego,New York,"Oswego, New York",43.4269,-76.1414,118339
Tom Green,Texas,"Tom Green, Texas",31.4045,-100.4621,117986
La Crosse,Wisconsin,"La Crosse, Wisconsin",43.9066,-91.1152,117894
Missoula,Montana,"Missoula, Montana",47.0365,-113.9237,117309
Carroll,Georgia,"Carroll, Georgia",33.5828,-85.0798,117183
Windham,Connecticut,"Windham, Connecticut",41.83,-71.9874,116566
Clark,Indiana,"Clark, Indiana",38.4772,-85.7073,116507
Allegan,Michigan,"Allegan, Michigan",42.5913,-85.8884,116143
Wayne,Ohio,"Wayne, Ohio",40.8289,-81.888,116099
Lowndes,Georgia,"Lowndes, Georgia",30.8338,-83.2677,115364
Berkeley,West Virginia,"Berkeley, West Virginia",39.4641,-78.0275,115329
Sheboygan,Wisconsin,"Sheboygan, Wisconsin",43.7212,-87.9454,115178
Delaware,Indiana,"Delaware, Indiana",40.2275,-85.3969,115020
Henderson,North Carolina,"Henderson, North Carolina",35.3363,-82.48,114913
Calhoun,Alabama,"Calhoun, Alabama",33.7714,-85.826,114618
Bonneville,Idaho,"Bonneville, Idaho",43.3877,-111.6148,114392
Lycoming,Pennsylvania,"Lycoming, Pennsylvania",41.3434,-77.0645,114330
Jefferson,New York,"Jefferson, New York",44.0494,-75.921,112842
Fayette,Georgia,"Fayette, Georgia",33.414,-84.4942,112303
St. Mary's,Maryland,"St. Mary's, Maryland",38.3024,-76.6058,112290
Terrebonne,Louisiana,"Terrebonne, Louisiana",29.4148,-90.8663,112054
Mercer,Pennsylvania,"Mercer, Pennsylvania",41.3022,-80.2577,111518
Pennington,South Dakota,"Pennington, South Dakota",44.0037,-102.8238,110685
Kankakee,Illinois,"Kankakee, Illinois",41.1377,-87.8618,110637
LaPorte,Indiana,"LaPorte, Indiana",41.546,-86.74,110154
Flagler,Florida,"Flagler, Florida",29.4614,-81.3136,109801
LaSalle,Illinois,"LaSalle, Illinois",41.344,-88.8859,109737
Ontario,New York,"Ontario, New York",42.8528,-77.2998,109511
Eaton,Michigan,"Eaton, Michigan",42.5961,-84.8383,109456
Navajo,Arizona,"Navajo, Arizona",35.3997,-110.3214,109270
Douglas,Oregon,"Douglas, Oregon",43.2797,-123.1665,109114
St. Lawrence,New York,"St. Lawrence, New York",44.4964,-75.0691,108913
Hardin,Kentucky,"Hardin, Kentucky",37.6979,-85.9634,108527
Newton,Georgia,"Newton, Georgia",33.555,-83.8502,108079
Gallatin,Montana,"Gallatin, Montana",45.5404,-111.1704,108063
Androscoggin,Maine,"Androscoggin, Maine",44.1658,-70.2065,107602
Vigo,Indiana,"Vigo, Indiana",39.4306,-87.39,107459
Albemarle,Virginia,"Albemarle, Virginia",38.0229,-78.5567,107405
Craighead,Arkansas,"Craighead, Arkansas",35.8308,-90.6328,107345
Cowlitz,Washington,"Cowlitz, Washington",46.1932,-122.681,106778
Sumter,South Carolina,"Sumter, South Carolina",33.9162,-80.3823,106757
Warren,New Jersey,"Warren, New Jersey",40.8572,-74.9973,105862
Bradley,Tennessee,"Bradley, Tennessee",35.1541,-84.8596,105749
Hanover,Virginia,"Hanover, Virginia",37.7601,-77.4912,105537
Macon,Illinois,"Macon, Illinois",39.86,-88.9616,105528
Monongalia,West Virginia,"Monongalia, West Virginia",39.6303,-80.0466,105474
Miami,Ohio,"Miami, Ohio",40.0535,-84.2289,105371
Matanuska-Susitna,Alaska,"Matanuska-Susitna, Alaska",62.3162,-149.5714,105369
Bartow,Georgia,"Bartow, Georgia",34.2377,-84.8403,104919
Yamhill,Oregon,"Yamhill, Oregon",45.2326,-123.3081,104831
Houston,Alabama,"Houston, Alabama",31.1532,-85.3025,104702
Madison,Mississippi,"Madison, Mississippi",32.6347,-90.0337,104562
DeKalb,Illinois,"DeKalb, Illinois",41.8935,-88.7703,104366
Whitfield,Georgia,"Whitfield, Georgia",34.8056,-84.9672,104237
Bay,Michigan,"Bay, Michigan",43.708,-83.9916,104104
Cass,Missouri,"Cass, Missouri",38.647,-94.3549,103597
Eau Claire,Wisconsin,"Eau Claire, Wisconsin",44.7268,-91.286,103514
Highlands,Florida,"Highlands, Florida",27.3433,-81.341,103437
Franklin,Missouri,"Franklin, Missouri",38.4111,-91.075,103191
Columbiana,Ohio,"Columbiana, Ohio",40.7684,-80.7772,103190
Allen,Ohio,"Allen, Ohio",40.7715,-84.1058,103175
Walworth,Wisconsin,"Walworth, Wisconsin",42.6685,-88.5419,103074
Etowah,Alabama,"Etowah, Alabama",34.0453,-86.0348,102748
Tompkins,New York,"Tompkins, New York",42.452,-76.4736,102642
Fond du Lac,Wisconsin,"Fond du Lac, Wisconsin",43.7536,-88.4883,102597
Woodbury,Iowa,"Woodbury, Iowa",42.3897,-96.0448,102586
Cecil,Maryland,"Cecil, Maryland",39.5712,-75.9407,102552
Wicomico,Maryland,"Wicomico, Maryland",38.3733,-75.6208,102539
Craven,North Carolina,"Craven, North Carolina",35.1249,-77.0939,102491
Adams,Pennsylvania,"Adams, Pennsylvania",39.8715,-77.2179,102470
Carver,Minnesota,"Carver, Minnesota",44.8208,-93.8026,101949
Platte,Missouri,"Platte, Missouri",39.3803,-94.7738,100682
Daviess,Kentucky,"Daviess, Kentucky",37.7318,-87.0873,100474
Flathead,Montana,"Flathead, Montana",48.2951,-114.0497,99899
Nevada,California,"Nevada, California",39.3014,-120.7685,99244
Roanoke,Virginia,"Roanoke, Virginia",37.2785,-79.958,99229
Fairbanks North Star,Alaska,"Fairbanks North Star, Alaska",64.8078,-146.5654,99072
Putnam,New York,"Putnam, New York",41.4267,-73.7495,98787
Garland,Arkansas,"Garland, Arkansas",34.5767,-93.1504,98555
Lenawee,Michigan,"Lenawee, Michigan",41.8951,-84.0664,98381
Laramie,Wyoming,"Laramie, Wyoming",41.307,-104.6895,98320
Montgomery,Virginia,"Montgomery, Virginia",37.1743,-80.3872,98140
Lafourche,Louisiana,"Lafourche, Louisiana",29.5662,-90.4258,98108
Ashtabula,Ohio,"Ashtabula, Ohio",41.7075,-80.7483,97830
Madison,Tennessee,"Madison, Tennessee",35.6081,-88.8385,97625
Floyd,Georgia,"Floyd, Georgia",34.2632,-85.2143,97369
Moore,North Carolina,"Moore, North Carolina",35.3106,-79.4814,97294
Cleveland,North Carolina,"Cleveland, North Carolina",35.3341,-81.5555,97282
Rockwall,Texas,"Rockwall, Texas",32.8977,-96.4078,97175
Sevier,Tennessee,"Sevier, Tennessee",35.7846,-83.5242,97068
Dubuque,Iowa,"Dubuque, Iowa",42.4688,-90.8825,96982
Story,Iowa,"Story, Iowa",42.0362,-93.465,96941
Steuben,New York,"Steuben, New York",42.2678,-77.3838,96422
Sutter,California,"Sutter, California",39.0346,-121.6948,96109
Marshall,Alabama,"Marshall, Alabama",34.367,-86.3066,95643
Grant,Washington,"Grant, Washington",47.2057,-119.4518,95502
Portsmouth,Virginia,"Portsmouth, Virginia",36.8468,-76.354,95097
Burleigh,North Dakota,"Burleigh, North Dakota",46.9775,-100.4687,94793
Limestone,Alabama,"Limestone, Alabama",34.8101,-86.9814,94727
Sherburne,Minnesota,"Sherburne, Minnesota",45.4439,-93.7746,94463
Cabell,West Virginia,"Cabell, West Virginia",38.4203,-82.2417,94339
Hunt,Texas,"Hunt, Texas",33.1236,-96.0855,94162
Nash,North Carolina,"Nash, North Carolina",35.9673,-77.9864,94030
Geauga,Ohio,"Geauga, Ohio",41.4996,-81.1786,93843
Roanoke,Virginia,"Roanoke, Virginia",37.2693,-80.068,93823
Pottawattamie,Iowa,"Pottawattamie, Iowa",41.3366,-95.5423,93393
Bowie,Texas,"Bowie, Texas",33.4458,-94.4234,93373
Cape May,New Jersey,"Cape May, New Jersey",39.149,-74.8002,93086
Campbell,Kentucky,"Campbell, Kentucky",38.9465,-84.3795,92861
Lauderdale,Alabama,"Lauderdale, Alabama",34.9014,-87.654,92556
Tuscarawas,Ohio,"Tuscarawas, Ohio",40.4409,-81.4738,92335
Lancaster,South Carolina,"Lancaster, South Carolina",34.6867,-80.7054,92308
Grand Traverse,Michigan,"Grand Traverse, Michigan",44.6688,-85.5605,92181
Victoria,Texas,"Victoria, Texas",28.7964,-96.9715,92109
Franklin,Washington,"Franklin, Washington",46.5347,-118.8989,92009
Maury,Tennessee,"Maury, Tennessee",35.6169,-87.077,91976
Northumberland,Pennsylvania,"Northumberland, Pennsylvania",40.852,-76.7093,91761
Calvert,Maryland,"Calvert, Maryland",38.5434,-76.5687,91511
Walton,Georgia,"Walton, Georgia",33.7816,-83.7339,91442
Rogers,Oklahoma,"Rogers, Oklahoma",36.3716,-95.6044,91353
Benton,Oregon,"Benton, Oregon",44.4918,-123.4293,91107
Rockingham,North Carolina,"Rockingham, North Carolina",36.396,-79.775,91077
Madison,Kentucky,"Madison, Kentucky",37.7202,-84.278,90802
Wayne,New York,"Wayne, New York",43.1566,-77.0294,90519
Suffolk,Virginia,"Suffolk, Virginia",36.6953,-76.6398,90093
Burke,North Carolina,"Burke, North Carolina",35.7496,-81.7048,89968
Grafton,New Hampshire,"Grafton, New Hampshire",43.9406,-71.8208,89777
Rockdale,Georgia,"Rockdale, Georgia",33.6542,-84.0266,89717
Dougherty,Georgia,"Dougherty, Georgia",31.5335,-84.2164,89703
St. Croix,Wisconsin,"St. Croix, Wisconsin",45.0341,-92.4528,88732
Ozaukee,Wisconsin,"Ozaukee, Wisconsin",43.384,-87.9509,88597
Buchanan,Missouri,"Buchanan, Missouri",39.6598,-94.8059,88460
Lapeer,Michigan,"Lapeer, Michigan",43.0901,-83.2218,88038
St. Clair,Alabama,"St. Clair, Alabama",33.7157,-86.3146,87989
Dodge,Wisconsin,"Dodge, Wisconsin",43.4163,-88.7075,87715
Orangeburg,South Carolina,"Orangeburg, South Carolina",33.439,-80.8003,87687
Angelina,Texas,"Angelina, Texas",31.2548,-94.6119,87322
Mendocino,California,"Mendocino, California",39.4402,-123.3915,87224
Dallas,Iowa,"Dallas, Iowa",41.6849,-94.0398,87099
Lawrence,Pennsylvania,"Lawrence, Pennsylvania",40.9912,-80.3347,86727
Frederick,Virginia,"Frederick, Virginia",39.2046,-78.2625,86415
Josephine,Oregon,"Josephine, Oregon",42.3655,-123.5555,86251
Muskingum,Ohio,"Muskingum, Ohio",39.9654,-81.9444,86131
Bannock,Idaho,"Bannock, Idaho",42.6685,-112.2246,85765
Crawford,Pennsylvania,"Crawford, Pennsylvania",41.6847,-80.1063,85665
Christian,Missouri,"Christian, Missouri",36.9696,-93.1889,85658
Lee,Mississippi,"Lee, Mississippi",34.2899,-88.6804,85072
Indiana,Pennsylvania,"Indiana, Pennsylvania",40.6521,-79.0875,85032
Wood,West Virginia,"Wood, West Virginia",39.2112,-81.515,84960
Chemung,New York,"Chemung, New York",42.1413,-76.76,84895
Twin Falls,Idaho,"Twin Falls, Idaho",42.356,-114.6672,84869
Jefferson,Wisconsin,"Jefferson, Wisconsin",43.0208,-88.7759,84701
Bastrop,Texas,"Bastrop, Texas",30.1036,-97.312,84522
Glynn,Georgia,"Glynn, Georgia",31.2309,-81.5407,84470
Orange,Texas,"Orange, Texas",30.1213,-93.8939,84069
Liberty,Texas,"Liberty, Texas",30.1516,-94.8122,83702
Midland,Michigan,"Midland, Michigan",43.6468,-84.3881,83355
St. Landry,Louisiana,"St. Landry, Louisiana",30.5988,-92.0059,83172
Nassau,Florida,"Nassau, Florida",30.6106,-81.8016,83098
Polk,Oregon,"Polk, Oregon",44.9035,-123.4132,83037
Lincoln,North Carolina,"Lincoln, North Carolina",35.4856,-81.2235,82919
Island,Washington,"Island, Washington",48.163,-122.5481,82866
Cullman,Alabama,"Cullman, Alabama",34.1319,-86.8676,82853
Newport,Rhode Island,"Newport, Rhode Island",41.5564,-71.2368,82801
Bartholomew,Indiana,"Bartholomew, Indiana",39.206,-85.8976,82481
Howard,Indiana,"Howard, Indiana",40.4836,-86.117,82331
Caldwell,North Carolina,"Caldwell, North Carolina",35.953,-81.5464,81884
Payne,Oklahoma,"Payne, Oklahoma",36.0773,-96.9756,81815
Cascade,Montana,"Cascade, Montana",47.308,-111.347,81625
Wilson,North Carolina,"Wilson, North Carolina",35.7051,-77.9187,81435
Elmore,Alabama,"Elmore, Alabama",32.5966,-86.1492,81144
Henderson,Texas,"Henderson, Texas",32.2119,-95.8536,81070
Leavenworth,Kansas,"Leavenworth, Kansas",39.1993,-95.038,80745
Clinton,New York,"Clinton, New York",44.7462,-73.6782,80583
Lynchburg,Virginia,"Lynchburg, Virginia",37.4003,-79.1909,80569
Talladega,Alabama,"Talladega, Alabama",33.3801,-86.1659,80387
Natrona,Wyoming,"Natrona, Wyoming",42.9621,-106.7985,80333
Rockingham,Virginia,"Rockingham, Virginia",38.512,-78.8758,80284
Bullitt,Kentucky,"Bullitt, Kentucky",37.9701,-85.6959,80171
Clearfield,Pennsylvania,"Clearfield, Pennsylvania",41.0002,-78.4741,79908
Manitowoc,Wisconsin,"Manitowoc, Wisconsin",44.1199,-87.8097,79185
Kosciusko,Indiana,"Kosciusko, Indiana",41.2441,-85.8607,79035
Barrow,Georgia,"Barrow, Georgia",33.9932,-83.7127,78991
Wagoner,Oklahoma,"Wagoner, Oklahoma",35.9611,-95.5212,78958
White,Arkansas,"White, Arkansas",35.2563,-91.7455,78762
Cape Girardeau,Missouri,"Cape Girardeau, Missouri",37.384,-89.6845,78491
Clinton,Michigan,"Clinton, Michigan",42.9437,-84.6015,78389
Bedford,Virginia,"Bedford, Virginia",37.3152,-79.5242,78376
Lewis,Washington,"Lewis, Washington",46.5778,-122.3927,78145
Vermilion,Illinois,"Vermilion, Illinois",40.1834,-87.7328,77563
Oconee,South Carolina,"Oconee, South Carolina",34.7534,-83.0658,77528
Putnam,Tennessee,"Putnam, Tennessee",36.1408,-85.4952,77447
Cayuga,New York,"Cayuga, New York",42.9175,-76.5545,77425
Floyd,Indiana,"Floyd, Indiana",38.3189,-85.9068,77320
Umatilla,Oregon,"Umatilla, Oregon",45.5919,-118.7368,77129
Cattaraugus,New York,"Cattaraugus, New York",42.2486,-78.6789,77121
Ross,Ohio,"Ross, Ohio",39.3376,-83.057,76948
Cole,Missouri,"Cole, Missouri",38.5054,-92.2816,76723
Yuba,California,"Yuba, California",39.269,-121.3513,76360
Lauderdale,Mississippi,"Lauderdale, Mississippi",32.4043,-88.6625,76279
Chelan,Washington,"Chelan, Washington",47.8692,-120.619,76229
Bulloch,Georgia,"Bulloch, Georgia",32.3968,-81.7432,76120
Anderson,Tennessee,"Anderson, Tennessee",36.1185,-84.1985,76061
Cheshire,New Hampshire,"Cheshire, New Hampshire",42.9194,-72.2512,76042
Scioto,Ohio,"Scioto, Ohio",38.804,-82.9928,76040
Valencia,New Mexico,"Valencia, New Mexico",34.7155,-106.809,76027
Hancock,Ohio,"Hancock, Ohio",41.0019,-83.6665,75837
Monroe,Florida,"Monroe, Florida",25.3156,-81.1106,75798
Clallam,Washington,"Clallam, Washington",48.0493,-123.928,75392
Van Buren,Michigan,"Van Buren, Michigan",42.2513,-86.0189,75358
Coryell,Texas,"Coryell, Texas",31.3909,-97.7992,75280
Raleigh,West Virginia,"Raleigh, West Virginia",37.7714,-81.2486,75252
Forrest,Mississippi,"Forrest, Mississippi",31.1889,-89.2579,75224
Hancock,Indiana,"Hancock, Indiana",39.8236,-85.7733,75164
Sullivan,New York,"Sullivan, New York",41.7164,-74.7681,75116
Augusta,Virginia,"Augusta, Virginia",38.1644,-79.1338,75079
Riley,Kansas,"Riley, Kansas",39.2966,-96.7352,75056
James City,Virginia,"James City, Virginia",37.3288,-76.7788,74916
Erie,Ohio,"Erie, Ohio",41.3632,-82.6192,74780
Somerset,Pennsylvania,"Somerset, Pennsylvania",39.9725,-79.0283,74361
Putnam,Florida,"Putnam, Florida",29.6087,-81.7443,73252
Wood,Wisconsin,"Wood, Wisconsin",44.4553,-90.0416,73112
Grays Harbor,Washington,"Grays Harbor, Washington",47.1503,-123.7735,72779
Lonoke,Arkansas,"Lonoke, Arkansas",34.7542,-91.8888,72528
McKinley,New Mexico,"McKinley, New Mexico",35.5807,-108.2618,72438
Walker,Texas,"Walker, Texas",30.739,-95.5723,72321
Pottawatomie,Oklahoma,"Pottawatomie, Oklahoma",35.2066,-96.9484,72154
Surry,North Carolina,"Surry, North Carolina",36.4148,-80.6881,71971
Iberia,Louisiana,"Iberia, Louisiana",29.8965,-91.73,71887
Kauai,Hawaii,"Kauai, Hawaii",22.0396,-159.5963,71769
Apache,Arizona,"Apache, Arizona",35.3955,-109.4888,71511
Allegany,Maryland,"Allegany, Maryland",39.6215,-78.6976,71445
Creek,Oklahoma,"Creek, Oklahoma",35.9026,-96.3708,71427
Christian,Kentucky,"Christian, Kentucky",36.8942,-87.4905,71414
Chatham,North Carolina,"Chatham, North Carolina",35.7026,-79.2553,71338
DeKalb,Alabama,"DeKalb, Alabama",34.4598,-85.8041,71310
Madison,New York,"Madison, New York",42.9128,-75.6696,71205
Isabella,Michigan,"Isabella, Michigan",43.6406,-84.8468,70688
Portage,Wisconsin,"Portage, Wisconsin",44.476,-89.5014,70632
Franklin,Massachusetts,"Franklin, Massachusetts",42.5831,-72.5918,70577
Greenwood,South Carolina,"Greenwood, South Carolina",34.1538,-82.1259,70411
Robertson,Tennessee,"Robertson, Tennessee",36.5255,-86.8706,70280
Lea,New Mexico,"Lea, New Mexico",32.7921,-103.4125,70277
Grand Forks,North Dakota,"Grand Forks, North Dakota",47.9219,-97.4569,70224
Columbia,Florida,"Columbia, Florida",30.2242,-82.6215,69968
Morgan,Indiana,"Morgan, Indiana",39.4816,-86.4462,69922
Troup,Georgia,"Troup, Georgia",33.0335,-85.0284,69919
Fauquier,Virginia,"Fauquier, Virginia",38.7386,-77.8092,69728
Jefferson,Arkansas,"Jefferson, Arkansas",34.2688,-91.9315,69282
Carteret,North Carolina,"Carteret, North Carolina",34.8357,-76.6589,69070
Walker,Georgia,"Walker, Georgia",34.7356,-85.301,69039
Greene,Tennessee,"Greene, Tennessee",36.1753,-82.8458,68834
Ward,North Dakota,"Ward, North Dakota",48.2217,-101.5418,68812
Muskogee,Oklahoma,"Muskogee, Oklahoma",35.6161,-95.3795,68736
Wilkes,North Carolina,"Wilkes, North Carolina",36.2063,-81.1634,68469
Jones,Mississippi,"Jones, Mississippi",31.6226,-89.1688,68352
Shiawassee,Michigan,"Shiawassee, Michigan",42.9537,-84.1467,68340
Walton,Florida,"Walton, Florida",30.6436,-86.1697,68262
Belmont,Ohio,"Belmont, Ohio",40.0158,-80.9885,68024
York,Virginia,"York, Virginia",37.2432,-76.5636,67982
Harrison,West Virginia,"Harrison, West Virginia",39.2835,-80.3799,67908
Broomfield,Colorado,"Broomfield, Colorado",39.9541,-105.0527,67886
Jackson,Georgia,"Jackson, Georgia",34.1339,-83.5664,67885
Aroostook,Maine,"Aroostook, Maine",46.6589,-68.5989,67809
Lewis and Clark,Montana,"Lewis and Clark, Montana",47.1224,-112.3904,67805
Tooele,Utah,"Tooele, Utah",40.4488,-113.1311,67397
Williamson,Illinois,"Williamson, Illinois",37.7303,-88.9299,67102
Darlington,South Carolina,"Darlington, South Carolina",34.3325,-79.9577,67027
San Patricio,Texas,"San Patricio, Texas",28.0091,-97.5186,67008
Klamath,Oregon,"Klamath, Oregon",42.6864,-121.6502,66921
Laurens,South Carolina,"Laurens, South Carolina",34.4836,-82.0059,66846
Blue Earth,Minnesota,"Blue Earth, Minnesota",44.0346,-94.067,66795
Catoosa,Georgia,"Catoosa, Georgia",34.9036,-85.1382,66700
Butler,Kansas,"Butler, Kansas",37.7812,-96.839,66698
Marquette,Michigan,"Marquette, Michigan",46.4314,-87.6416,66686
St. Francois,Missouri,"St. Francois, Missouri",37.8102,-90.4722,66643
Rutherford,North Carolina,"Rutherford, North Carolina",35.4026,-81.9198,66599
Harrison,Texas,"Harrison, Texas",32.5481,-94.3715,66580
Grant,Indiana,"Grant, Indiana",40.5158,-85.6547,66452
Jefferson,Ohio,"Jefferson, Ohio",40.385,-80.761,66371
Franklin,North Carolina,"Franklin, North Carolina",36.0828,-78.2857,66362
Wayne,Indiana,"Wayne, Indiana",39.8644,-85.0098,66342
Wise,Texas,"Wise, Texas",33.2159,-97.6545,66290
Rice,Minnesota,"Rice, Minnesota",44.3543,-93.2967,66185
Otero,New Mexico,"Otero, New Mexico",32.6132,-105.7415,66137
Adams,Illinois,"Adams, Illinois",39.9879,-91.1885,66085
Oldham,Kentucky,"Oldham, Kentucky",38.3994,-85.4483,65967
Athens,Ohio,"Athens, Ohio",39.3339,-82.0452,65917
Armstrong,Pennsylvania,"Armstrong, Pennsylvania",40.8123,-79.4645,65867
Columbia,Pennsylvania,"Columbia, Pennsylvania",41.0487,-76.4052,65715
Boone,Indiana,"Boone, Indiana",40.0508,-86.4687,65544
Nacogdoches,Texas,"Nacogdoches, Texas",31.616,-94.6159,65339
Spalding,Georgia,"Spalding, Georgia",33.2609,-84.2841,65306
Marion,Ohio,"Marion, Ohio",40.5872,-83.1609,65299
McCracken,Kentucky,"McCracken, Kentucky",37.054,-88.7127,65268
Chaves,New Mexico,"Chaves, New Mexico",33.3633,-104.4669,65144
Kershaw,South Carolina,"Kershaw, South Carolina",34.3388,-80.5902,65112
Pulaski,Kentucky,"Pulaski, Kentucky",37.1039,-84.5773,64350
Ionia,Michigan,"Ionia, Michigan",42.9451,-85.0746,64300
Warren,New York,"Warren, New York",43.561,-73.846,64276
Crow Wing,Minnesota,"Crow Wing, Minnesota",46.4824,-94.0709,64217
Lake,California,"Lake, California",39.0996,-122.7532,64195
Hamblen,Tennessee,"Hamblen, Tennessee",36.2171,-83.2667,64132
Walker,Alabama,"Walker, Alabama",33.8033,-87.2973,64110
Starr,Texas,"Starr, Texas",26.5621,-98.7387,64078
Sauk,Wisconsin,"Sauk, Wisconsin",43.4267,-89.9482,63922
Tehama,California,"Tehama, California",40.1256,-122.2341,63912
Chippewa,Wisconsin,"Chippewa, Wisconsin",45.0694,-91.2798,63892
Carbon,Pennsylvania,"Carbon, Pennsylvania",40.9182,-75.7088,63887
Mason,Washington,"Mason, Washington",47.3484,-123.1927,63804
Pope,Arkansas,"Pope, Arkansas",35.4476,-93.0342,63761
Coos,Oregon,"Coos, Oregon",43.1742,-124.0594,63686
Livingston,New York,"Livingston, New York",42.7281,-77.7755,63591
Clay,Minnesota,"Clay, Minnesota",46.8924,-96.4907,63446
Montcalm,Michigan,"Montcalm, Michigan",43.311,-85.1525,63413
Sampson,North Carolina,"Sampson, North Carolina",34.9915,-78.3714,63385
Salem,New Jersey,"Salem, New Jersey",39.5876,-75.3491,62990
Reno,Kansas,"Reno, Kansas",37.953,-98.086,62765
Crawford,Arkansas,"Crawford, Arkansas",35.5885,-94.2429,62739
Acadia,Louisiana,"Acadia, Louisiana",30.2905,-92.412,62457
Warrick,Indiana,"Warrick, Indiana",38.0922,-87.2721,62280
Herkimer,New York,"Herkimer, New York",43.4197,-74.9625,62057
Lamar,Mississippi,"Lamar, Mississippi",31.206,-89.5087,61969
Georgetown,South Carolina,"Georgetown, South Carolina",33.4343,-79.3323,61952
Garfield,Oklahoma,"Garfield, Oklahoma",36.3791,-97.7827,61898
Washington,New York,"Washington, New York",43.3137,-73.4308,61616
Stanly,North Carolina,"Stanly, North Carolina",35.312,-80.251,61588
Knox,Ohio,"Knox, Ohio",40.3988,-82.4215,61481
Tipton,Tennessee,"Tipton, Tennessee",35.4969,-89.7592,61447
Liberty,Georgia,"Liberty, Georgia",31.8281,-81.4947,61349
Hall,Nebraska,"Hall, Nebraska",40.8726,-98.5022,61265
Pittsylvania,Virginia,"Pittsylvania, Virginia",36.8213,-79.3971,61256
Haywood,North Carolina,"Haywood, North Carolina",35.556,-82.9822,61053
Bradford,Pennsylvania,"Bradford, Pennsylvania",41.7887,-76.5154,60963
Belknap,New Hampshire,"Belknap, New Hampshire",43.5179,-71.4227,60887
St. Joseph,Michigan,"St. Joseph, Michigan",41.9144,-85.5278,60836
Barry,Michigan,"Barry, Michigan",42.595,-85.309,60540
Lee,North Carolina,"Lee, North Carolina",35.4752,-79.1715,60481
Effingham,Georgia,"Effingham, Georgia",32.3673,-81.3413,60477
Washington,Ohio,"Washington, Ohio",39.4553,-81.4953,60426
Pender,North Carolina,"Pender, North Carolina",34.5248,-77.9051,60399
San Benito,California,"San Benito, California",36.6057,-121.075,60376
Columbia,New York,"Columbia, New York",42.2501,-73.6318,60371
Walla Walla,Washington,"Walla Walla, Washington",46.2298,-118.4784,60365
Laurel,Kentucky,"Laurel, Kentucky",37.1107,-84.1178,60357
Lawrence,Ohio,"Lawrence, Ohio",38.5984,-82.5368,60184
Otsego,New York,"Otsego, New York",42.6338,-75.0326,59972
Mercer,West Virginia,"Mercer, West Virginia",37.4055,-81.1114,59919
Vermilion,Louisiana,"Vermilion, Louisiana",29.8465,-92.3238,59865
Pike,Kentucky,"Pike, Kentucky",37.4691,-82.3958,59497
Granville,North Carolina,"Granville, North Carolina",36.3041,-78.6527,59328
Cumberland,Tennessee,"Cumberland, Tennessee",35.9504,-84.9984,59216
Lowndes,Mississippi,"Lowndes, Mississippi",33.4729,-88.4433,59150
Garfield,Colorado,"Garfield, Colorado",39.5993,-107.904,59055
Sandusky,Ohio,"Sandusky, Ohio",41.3563,-83.1462,59029
Duplin,North Carolina,"Duplin, North Carolina",34.9365,-77.933,58967
Rutland,Vermont,"Rutland, Vermont",43.5801,-73.0366,58892
Kenai Peninsula,Alaska,"Kenai Peninsula, Alaska",60.2654,-151.5652,58464
Washington,Vermont,"Washington, Vermont",44.2734,-72.6149,58350
Huron,Ohio,"Huron, Ohio",41.1462,-82.5984,58339
Hood,Texas,"Hood, Texas",32.43,-97.8323,58318
Otter Tail,Minnesota,"Otter Tail, Minnesota",46.4088,-95.708,58195
Newton,Missouri,"Newton, Missouri",36.9055,-94.3393,58180
Maverick,Texas,"Maverick, Texas",28.7425,-100.3145,58174
Jackson,Illinois,"Jackson, Illinois",37.7851,-89.3821,57977
Russell,Alabama,"Russell, Alabama",32.2884,-85.1849,57952
Anderson,Texas,"Anderson, Texas",31.8133,-95.6525,57810
Genesee,New York,"Genesee, New York",43.0009,-78.1938,57808
Pickaway,Ohio,"Pickaway, Ohio",39.6419,-83.0244,57762
Eddy,New Mexico,"Eddy, New Mexico",32.4715,-104.3043,57732
Blount,Alabama,"Blount, Alabama",33.9809,-86.5674,57681
Oxford,Maine,"Oxford, Maine",44.4999,-70.7566,57550
Gordon,Georgia,"Gordon, Georgia",34.5032,-84.8759,57202
Columbia,Wisconsin,"Columbia, Wisconsin",43.4666,-89.3337,57133
Cherokee,South Carolina,"Cherokee, South Carolina",35.0481,-81.6205,56895
Lincoln,South Dakota,"Lincoln, South Dakota",43.2789,-96.7218,56826
Hardin,Texas,"Hardin, Texas",30.3324,-94.3902,56765
Lenoir,North Carolina,"Lenoir, North Carolina",35.2388,-77.6412,56756
Union,Ohio,"Union, Ohio",40.2994,-83.3716,56707
Hawkins,Tennessee,"Hawkins, Tennessee",36.4412,-82.9447,56611
Putnam,West Virginia,"Putnam, West Virginia",38.5086,-81.909,56610
Jefferson,West Virginia,"Jefferson, West Virginia",39.3076,-77.8628,56506
Lincoln,Missouri,"Lincoln, Missouri",39.058,-90.9601,56477
Carter,Tennessee,"Carter, Tennessee",36.2928,-82.1275,56433
Marion,West Virginia,"Marion, West Virginia",39.51,-80.2434,56355
Franklin,Virginia,"Franklin, Virginia",36.992,-79.8811,56187
Columbus,North Carolina,"Columbus, North Carolina",34.2656,-78.655,56068
Whiteside,Illinois,"Whiteside, Illinois",41.7562,-89.9141,56016
La Plata,Colorado,"La Plata, Colorado",37.2866,-107.8433,55617
Pike,Pennsylvania,"Pike, Pennsylvania",41.332,-75.0338,55453
Autauga,Alabama,"Autauga, Alabama",32.5349,-86.6427,55380
Seneca,Ohio,"Seneca, Ohio",41.1239,-83.1277,55351
Chisago,Minnesota,"Chisago, Minnesota",45.5025,-92.9083,55315
Windsor,Vermont,"Windsor, Vermont",43.58,-72.5862,55275
Campbell,Virginia,"Campbell, Virginia",37.2053,-79.0966,55225
Pearl River,Mississippi,"Pearl River, Mississippi",30.7688,-89.5896,55219
Coffee,Tennessee,"Coffee, Tennessee",35.4906,-86.0748,55209
Taney,Missouri,"Taney, Missouri",36.6548,-93.0411,55114
Van Zandt,Texas,"Van Zandt, Texas",32.5637,-95.8365,55103
Grady,Oklahoma,"Grady, Oklahoma",35.0169,-97.8841,55071
Watauga,North Carolina,"Watauga, North Carolina",36.2311,-81.6964,54925
Carson City,Nevada,"Carson City, Nevada",39.1512,-119.7474,54773
Colbert,Alabama,"Colbert, Alabama",34.7005,-87.8049,54771
Saline,Kansas,"Saline, Kansas",38.7838,-97.65,54701
Eagle,Colorado,"Eagle, Colorado",39.6278,-106.6954,54681
Scott,Kentucky,"Scott, Kentucky",38.2915,-84.5839,54667
Hancock,Maine,"Hancock, Maine",44.6642,-68.3586,54601
Lyon,Nevada,"Lyon, Nevada",39.0203,-119.1891,54380
Washington,Virginia,"Washington, Virginia",36.7244,-81.9598,54071
Tuolumne,California,"Tuolumne, California",38.0276,-119.9548,54045
Hoke,North Carolina,"Hoke, North Carolina",35.0175,-79.2373,53957
Box Elder,Utah,"Box Elder, Utah",41.521,-113.0821,53946
Rusk,Texas,"Rusk, Texas",32.1077,-94.7619,53755
St. Martin,Louisiana,"St. Martin, Louisiana",30.1291,-91.6083,53732
Johnson,Missouri,"Johnson, Missouri",38.7441,-93.8064,53682
Jefferson,Tennessee,"Jefferson, Tennessee",36.051,-83.4463,53679
Fulton,New York,"Fulton, New York",43.1138,-74.4222,53646
Lafayette,Mississippi,"Lafayette, Mississippi",34.3567,-89.4849,53590
Gila,Arizona,"Gila, Arizona",33.7997,-110.8117,53546
Boone,Illinois,"Boone, Illinois",42.3231,-88.8234,53537
Ashland,Ohio,"Ashland, Ohio",40.846,-82.2707,53536
Harrisonburg,Virginia,"Harrisonburg, Virginia",38.4361,-78.8735,53273
Camden,Georgia,"Camden, Georgia",30.9306,-81.67,53231
Roane,Tennessee,"Roane, Tennessee",35.8479,-84.5232,53075
McMinn,Tennessee,"McMinn, Tennessee",35.4248,-84.6175,53053
Jessamine,Kentucky,"Jessamine, Kentucky",37.8721,-84.5809,53032
Tuscola,Michigan,"Tuscola, Michigan",43.4645,-83.4169,52939
St. Charles,Louisiana,"St. Charles, Louisiana",29.9055,-90.3582,52773
Dickson,Tennessee,"Dickson, Tennessee",36.149,-87.3567,52680
Edgecombe,North Carolina,"Edgecombe, North Carolina",35.9129,-77.5971,52648
Pulaski,Missouri,"Pulaski, Missouri",37.8246,-92.2076,52425
Loudon,Tennessee,"Loudon, Tennessee",35.7348,-84.3118,52340
Elko,Nevada,"Elko, Nevada",41.1458,-115.3577,52297
Cherokee,Texas,"Cherokee, Texas",31.837,-95.1652,52118
Washington,Oklahoma,"Washington, Oklahoma",36.7152,-95.9044,51886
Jackson,Alabama,"Jackson, Alabama",34.7795,-85.9994,51852
Kerr,Texas,"Kerr, Texas",30.0615,-99.35,51843
Waller,Texas,"Waller, Texas",30.0108,-95.9877,51832
Venango,Pennsylvania,"Venango, Pennsylvania",41.401,-79.758,51818
Worcester,Maryland,"Worcester, Maryland",38.2128,-75.334,51765
Grant,Wisconsin,"Grant, Wisconsin",42.8675,-90.7062,51733
Coffee,Alabama,"Coffee, Alabama",31.4027,-85.9882,51662
Cass,Michigan,"Cass, Michigan",41.9154,-85.9935,51523
Darke,Ohio,"Darke, Ohio",40.1333,-84.6194,51513
Wayne,Pennsylvania,"Wayne, Pennsylvania",41.6487,-75.3033,51422
Columbia,Oregon,"Columbia, Oregon",45.9438,-123.0883,51375
Coles,Illinois,"Coles, Illinois",39.5203,-88.2218,51353
Henry,Virginia,"Henry, Virginia",36.6828,-79.874,51308
Waupaca,Wisconsin,"Waupaca, Wisconsin",44.4705,-88.9648,51245
Iron,Utah,"Iron, Utah",37.8592,-113.2895,51213
Halifax,North Carolina,"Halifax, North Carolina",36.2575,-77.6517,51190
Culpeper,Virginia,"Culpeper, Virginia",38.486,-77.9558,51101
Ogle,Illinois,"Ogle, Illinois",42.0426,-89.3207,51025
St. Mary,Louisiana,"St. Mary, Louisiana",29.7047,-91.4432,50968
Winona,Minnesota,"Winona, Minnesota",43.9869,-91.7792,50725
Grundy,Illinois,"Grundy, Illinois",41.2851,-88.4185,50666
Franklin,Kentucky,"Franklin, Kentucky",38.2392,-84.8771,50529
Somerset,Maine,"Somerset, Maine",45.5139,-69.9589,50520
Knox,Illinois,"Knox, Illinois",40.9318,-90.2132,50508
Franklin,New York,"Franklin, New York",44.5929,-74.3038,50477
Warren,Iowa,"Warren, Iowa",41.3344,-93.5614,50076
Medina,Texas,"Medina, Texas",29.3557,-99.1102,50057
Le Flore,Oklahoma,"Le Flore, Oklahoma",34.9003,-94.7034,50026
Calumet,Wisconsin,"Calumet, Wisconsin",44.0816,-88.2181,49928
Curry,New Mexico,"Curry, New Mexico",34.5742,-103.347,49732
Vernon,Louisiana,"Vernon, Louisiana",31.1083,-93.1842,49646
Queen Anne's,Maryland,"Queen Anne's, Maryland",39.068,-76.0203,49632
Lamar,Texas,"Lamar, Texas",33.6673,-95.5712,49611
Atascosa,Texas,"Atascosa, Texas",28.8935,-98.5272,49528
Oktibbeha,Mississippi,"Oktibbeha, Mississippi",33.425,-88.8793,49512
Dearborn,Indiana,"Dearborn, Indiana",39.1452,-84.9732,49479
Montgomery,New York,"Montgomery, New York",42.9023,-74.4397,49302
Dale,Alabama,"Dale, Alabama",31.4318,-85.611,49277
Henry,Illinois,"Henry, Illinois",41.3531,-90.1314,49267
Whitman,Washington,"Whitman, Washington",46.9012,-117.523,49231
Gibson,Tennessee,"Gibson, Tennessee",35.9966,-88.9326,49228
Buffalo,Nebraska,"Buffalo, Nebraska",40.8552,-99.075,49209
Wilson,Texas,"Wilson, Texas",29.174,-98.0866,49173
Franklin,Vermont,"Franklin, Vermont",44.8575,-72.912,49116
Navarro,Texas,"Navarro, Texas",32.0469,-96.4725,48995
Val Verde,Texas,"Val Verde, Texas",29.8929,-101.1517,48969
Polk,Texas,"Polk, Texas",30.7927,-94.83,48913
Bristol,Rhode Island,"Bristol, Rhode Island",41.7173,-71.284,48764
Shelby,Ohio,"Shelby, Ohio",40.3316,-84.2048,48749
Tioga,New York,"Tioga, New York",42.1703,-76.3063,48686
Crittenden,Arkansas,"Crittenden, Arkansas",35.2079,-90.3089,48672
Cherokee,Oklahoma,"Cherokee, Oklahoma",35.9067,-94.9997,48664
Lincoln,Oregon,"Lincoln, Oregon",44.642,-123.8682,48547
Newaygo,Michigan,"Newaygo, Michigan",43.5542,-85.8009,48366
Bedford,Pennsylvania,"Bedford, Pennsylvania",40.0065,-78.4903,48337
Carter,Oklahoma,"Carter, Oklahoma",34.2509,-97.2858,48319
Bedford,Tennessee,"Bedford, Tennessee",35.5138,-86.4589,48292
Henry,Indiana,"Henry, Indiana",39.9311,-85.3964,48255
Carroll,New Hampshire,"Carroll, New Hampshire",43.8738,-71.2031,48138
Douglas,Nevada,"Douglas, Nevada",38.9122,-119.6164,48132
Jackson,Florida,"Jackson, Florida",30.7954,-85.2155,47945
Chenango,New York,"Chenango, New York",42.4935,-75.6116,47909
Cortland,New York,"Cortland, New York",42.595,-76.0703,47865
Boyd,Kentucky,"Boyd, Kentucky",38.3596,-82.6878,47682
Noble,Indiana,"Noble, Indiana",41.3986,-85.4175,47506
Greene,New York,"Greene, New York",42.2765,-74.1227,47424
Campbell,Wyoming,"Campbell, Wyoming",44.2482,-105.5482,47409
Laurens,Georgia,"Laurens, Georgia",32.4637,-82.9222,47405
Shelby,Kentucky,"Shelby, Kentucky",38.2155,-85.1948,47325
Fremont,Colorado,"Fremont, Colorado",38.473,-105.4397,47321
Lincoln,Louisiana,"Lincoln, Louisiana",32.6016,-92.6648,47246
Osage,Oklahoma,"Osage, Oklahoma",36.6292,-96.3985,47226
Beaufort,North Carolina,"Beaufort, North Carolina",35.494,-76.8598,47168
Charlottesville,Virginia,"Charlottesville, Virginia",38.0375,-78.4855,47096
Hancock,Mississippi,"Hancock, Mississippi",30.416,-89.4885,46961
Clinton,Iowa,"Clinton, Iowa",41.898,-90.532,46909
Allegany,New York,"Allegany, New York",42.2574,-78.0276,46688
Logan,Oklahoma,"Logan, Oklahoma",35.9193,-97.4433,46683
Burnet,Texas,"Burnet, Texas",30.7883,-98.1824,46530
Warren,Mississippi,"Warren, Mississippi",32.3573,-90.852,46519
Santa Cruz,Arizona,"Santa Cruz, Arizona",31.5259,-110.8465,46480
Marshall,Indiana,"Marshall, Indiana",41.3248,-86.2618,46461
Bryan,Oklahoma,"Bryan, Oklahoma",33.9623,-96.2598,46457
Washington,Louisiana,"Washington, Louisiana",30.8533,-90.0405,46435
Beltrami,Minnesota,"Beltrami, Minnesota",47.9738,-94.9377,46403
Mifflin,Pennsylvania,"Mifflin, Pennsylvania",40.6104,-77.617,46276
St. Bernard,Louisiana,"St. Bernard, Louisiana",29.8693,-89.5552,46266
Goodhue,Minnesota,"Goodhue, Minnesota",44.4097,-92.7229,46246
Monroe,Tennessee,"Monroe, Tennessee",35.4427,-84.2527,46064
Washington,Mississippi,"Washington, Mississippi",33.2838,-90.9475,46057
Perry,Pennsylvania,"Perry, Pennsylvania",40.3984,-77.2623,46053
Chesterfield,South Carolina,"Chesterfield, South Carolina",34.6398,-80.1587,45953
Gadsden,Florida,"Gadsden, Florida",30.5795,-84.6136,45945
Kittitas,Washington,"Kittitas, Washington",47.1244,-120.6799,45897
Bingham,Idaho,"Bingham, Idaho",43.2166,-112.3981,45839
Henderson,Kentucky,"Henderson, Kentucky",37.7958,-87.573,45829
Stokes,North Carolina,"Stokes, North Carolina",36.4019,-80.2395,45781
Monroe,Wisconsin,"Monroe, Wisconsin",43.9457,-90.6178,45771
Hillsdale,Michigan,"Hillsdale, Michigan",41.8878,-84.5929,45757
Auglaize,Ohio,"Auglaize, Ohio",40.5609,-84.2217,45729
Nelson,Kentucky,"Nelson, Kentucky",37.8052,-85.466,45650
Lawrence,Indiana,"Lawrence, Indiana",38.8412,-86.4835,45548
Calaveras,California,"Calaveras, California",38.2046,-120.5541,45514
Colquitt,Georgia,"Colquitt, Georgia",31.1884,-83.7688,45486
Camden,Missouri,"Camden, Missouri",38.027,-92.766,45466
Macoupin,Illinois,"Macoupin, Illinois",39.261,-89.9245,45463
Huntingdon,Pennsylvania,"Huntingdon, Pennsylvania",40.417,-77.9812,45369
Hopkins,Kentucky,"Hopkins, Kentucky",37.3088,-87.5408,45331
Logan,Ohio,"Logan, Ohio",40.3885,-83.7658,45316
Barron,Wisconsin,"Barron, Wisconsin",45.4237,-91.8483,45229
McDowell,North Carolina,"McDowell, North Carolina",35.6817,-82.0493,45227
Itasca,Minnesota,"Itasca, Minnesota",47.5095,-93.632,45141
Baldwin,Georgia,"Baldwin, Georgia",33.0692,-83.2496,45111
Union,Pennsylvania,"Union, Pennsylvania",40.963,-77.0622,45111
Stephenson,Illinois,"Stephenson, Illinois",42.3518,-89.6623,45093
Richmond,North Carolina,"Richmond, North Carolina",35.0059,-79.7478,44997
Delaware,New York,"Delaware, New York",42.1981,-74.9665,44995
Greene,Arkansas,"Greene, Arkansas",36.1176,-90.559,44937
Callaway,Missouri,"Callaway, Missouri",38.8355,-91.926,44889
Dunn,Wisconsin,"Dunn, Wisconsin",44.9466,-91.8964,44759
Stevens,Washington,"Stevens, Washington",48.3991,-117.8552,44655
Thomas,Georgia,"Thomas, Georgia",30.8638,-83.9193,44630
Phelps,Missouri,"Phelps, Missouri",37.8772,-91.7923,44630
Habersham,Georgia,"Habersham, Georgia",34.631,-83.5311,44626
Vance,North Carolina,"Vance, North Carolina",36.3649,-78.4079,44479
Shelby,Indiana,"Shelby, Indiana",39.5237,-85.7917,44438
Kay,Oklahoma,"Kay, Oklahoma",36.818,-97.1439,44402
Nye,Nevada,"Nye, Nevada",38.0423,-116.4719,44380
Wood,Texas,"Wood, Texas",32.7864,-95.3821,44366
Pittsburg,Oklahoma,"Pittsburg, Oklahoma",34.9239,-95.7484,44146
Madison,Ohio,"Madison, Ohio",39.894,-83.4002,44135
Chilton,Alabama,"Chilton, Alabama",32.8479,-86.7188,44055
Suwannee,Florida,"Suwannee, Florida",30.1956,-82.9915,44046
Jackson,Indiana,"Jackson, Indiana",38.9064,-86.0375,44025
Holmes,Ohio,"Holmes, Ohio",40.5612,-81.9293,43901
Barren,Kentucky,"Barren, Kentucky",36.9656,-85.9337,43884
Jefferson,Pennsylvania,"Jefferson, Pennsylvania",41.1282,-78.9994,43846
Kendall,Texas,"Kendall, Texas",29.9447,-98.7116,43769
Stephens,Oklahoma,"Stephens, Oklahoma",34.4856,-97.8515,43647
Bonner,Idaho,"Bonner, Idaho",48.3,-116.6011,43611
Fayette,West Virginia,"Fayette, West Virginia",38.0288,-81.0812,43576
Miller,Arkansas,"Miller, Arkansas",33.3121,-93.8916,43572
Brown,Ohio,"Brown, Ohio",38.934,-83.8674,43572
Sweetwater,Wyoming,"Sweetwater, Wyoming",41.6595,-108.8796,43521
Branch,Michigan,"Branch, Michigan",41.9161,-85.059,43513
Siskiyou,California,"Siskiyou, California",41.5927,-122.5404,43468
Polk,Wisconsin,"Polk, Wisconsin",45.4614,-92.4414,43438
Lawrence,Tennessee,"Lawrence, Tennessee",35.2173,-87.3956,43390
Douglas,Wisconsin,"Douglas, Wisconsin",46.4329,-91.9162,43295
Mecosta,Michigan,"Mecosta, Michigan",43.6408,-85.3246,43251
St. John the Baptist,Louisiana,"St. John the Baptist, Louisiana",30.1265,-90.4709,43242
Shenandoah,Virginia,"Shenandoah, Virginia",38.8583,-78.5708,43224
Sullivan,New Hampshire,"Sullivan, New Hampshire",43.3614,-72.2222,43104
Coffee,Georgia,"Coffee, Georgia",31.5493,-82.8492,43021
Highland,Ohio,"Highland, Ohio",39.1847,-83.601,43016
Jackson,North Carolina,"Jackson, North Carolina",35.2875,-83.1408,42938
DeKalb,Indiana,"DeKalb, Indiana",41.3976,-84.9991,42927
Muscatine,Iowa,"Muscatine, Iowa",41.4839,-91.1127,42889
Kandiyohi,Minnesota,"Kandiyohi, Minnesota",45.1524,-95.0047,42841
Cerro Gordo,Iowa,"Cerro Gordo, Iowa",43.0816,-93.2608,42834
Windham,Vermont,"Windham, Vermont",42.9906,-72.7138,42823
Butler,Missouri,"Butler, Missouri",36.7164,-90.4066,42656
Dubois,Indiana,"Dubois, Indiana",38.3643,-86.8798,42543
Ravalli,Montana,"Ravalli, Montana",46.0817,-114.1207,42512
Delaware,Oklahoma,"Delaware, Oklahoma",36.4082,-94.8026,42433
Pettis,Missouri,"Pettis, Missouri",38.7283,-93.2851,42355
Davie,North Carolina,"Davie, North Carolina",35.9291,-80.5445,42257
Fulton,Ohio,"Fulton, Ohio",41.6018,-84.1301,42253
Caldwell,Texas,"Caldwell, Texas",29.8371,-97.62,42144
Ohio,West Virginia,"Ohio, West Virginia",40.0969,-80.6189,42143
Mississippi,Arkansas,"Mississippi, Arkansas",35.7638,-90.0542,42126
Douglas,Washington,"Douglas, Washington",47.7361,-119.6918,42023
Pierce,Wisconsin,"Pierce, Wisconsin",44.7194,-92.4224,41977
Clinton,Ohio,"Clinton, Ohio",39.415,-83.8084,41957
Polk,Georgia,"Polk, Georgia",34.0018,-85.1881,41908
Okanogan,Washington,"Okanogan, Washington",48.5488,-119.7408,41842
Erath,Texas,"Erath, Texas",32.2363,-98.2179,41841
Crawford,Ohio,"Crawford, Ohio",40.8508,-82.9198,41821
Franklin,Tennessee,"Franklin, Tennessee",35.155,-86.0922,41725
Sequoyah,Oklahoma,"Sequoyah, Oklahoma",35.4954,-94.7552,41709
Montrose,Colorado,"Montrose, Colorado",38.4022,-108.2693,41686
Tazewell,Virginia,"Tazewell, Virginia",37.125,-81.5606,41603
Wharton,Texas,"Wharton, Texas",29.2779,-96.2221,41577
Baxter,Arkansas,"Baxter, Arkansas",36.2872,-92.337,41427
McKean,Pennsylvania,"McKean, Pennsylvania",41.8077,-78.569,41401
Chambers,Texas,"Chambers, Texas",29.7386,-94.611,41305
Sanilac,Michigan,"Sanilac, Michigan",43.4236,-82.8201,41295
Manassas,Virginia,"Manassas, Virginia",38.7479,-77.4839,41174
Okeechobee,Florida,"Okeechobee, Florida",27.3864,-80.8886,41144
Summit,Utah,"Summit, Utah",40.8682,-110.9557,41103
Preble,Ohio,"Preble, Ohio",39.7415,-84.648,41093
Danville,Virginia,"Danville, Virginia",36.5831,-79.4087,41070
Mayes,Oklahoma,"Mayes, Oklahoma",36.3019,-95.2308,41044
Upshur,Texas,"Upshur, Texas",32.7363,-94.9415,41018
Jim Wells,Texas,"Jim Wells, Texas",27.7314,-98.0899,40972
Susquehanna,Pennsylvania,"Susquehanna, Pennsylvania",41.8214,-75.8007,40970
Tioga,Pennsylvania,"Tioga, Pennsylvania",41.7722,-77.2543,40944
Gratiot,Michigan,"Gratiot, Michigan",43.2927,-84.6049,40916
Orleans,New York,"Orleans, New York",43.2521,-78.2312,40904
Shawano,Wisconsin,"Shawano, Wisconsin",44.7892,-88.7654,40904
Mercer,Ohio,"Mercer, Ohio",40.5399,-84.6294,40884
Hendry,Florida,"Hendry, Florida",26.5535,-81.1659,40732
Warren,Tennessee,"Warren, Tennessee",35.6787,-85.7785,40702
Avoyelles,Louisiana,"Avoyelles, Louisiana",31.0762,-92.0014,40669
Ottawa,Ohio,"Ottawa, Ohio",41.5381,-83.1409,40632
Tallapoosa,Alabama,"Tallapoosa, Alabama",32.8624,-85.7975,40541
Tift,Georgia,"Tift, Georgia",31.4574,-83.5266,40541
Snyder,Pennsylvania,"Snyder, Pennsylvania",40.7698,-77.0702,40483
Levy,Florida,"Levy, Florida",29.3184,-82.7436,40403
Marinette,Wisconsin,"Marinette, Wisconsin",45.383,-88.0334,40391
Wyoming,New York,"Wyoming, New York",42.7024,-78.2245,40305
Wayne,West Virginia,"Wayne, West Virginia",38.1459,-82.427,40303
Nez Perce,Idaho,"Nez Perce, Idaho",46.3268,-116.7502,40217
Cheatham,Tennessee,"Cheatham, Tennessee",36.2611,-87.0867,40181
Fayette,Tennessee,"Fayette, Tennessee",35.1971,-89.4144,40164
Benton,Minnesota,"Benton, Minnesota",45.6991,-93.9988,40129
Howell,Missouri,"Howell, Missouri",36.774,-91.8865,40104
Cooke,Texas,"Cooke, Texas",33.6393,-97.2126,40041
Marshall,Iowa,"Marshall, Iowa",42.0358,-92.9988,39964
Harrison,Indiana,"Harrison, Indiana",38.1952,-86.1113,39940
Fremont,Wyoming,"Fremont, Wyoming",43.0405,-108.6305,39812
Mower,Minnesota,"Mower, Minnesota",43.6714,-92.7525,39807
Campbell,Tennessee,"Campbell, Tennessee",36.4035,-84.1494,39797
Knox,Maine,"Knox, Maine",44.141,-69.1686,39759
Warren,Pennsylvania,"Warren, Pennsylvania",41.8145,-79.2741,39756
Murray,Georgia,"Murray, Georgia",34.7884,-84.7481,39724
Waldo,Maine,"Waldo, Maine",44.5028,-69.1454,39539
Pike,Mississippi,"Pike, Mississippi",31.1749,-90.4042,39532
Pasquotank,North Carolina,"Pasquotank, North Carolina",36.2955,-76.284,39514
Latah,Idaho,"Latah, Idaho",46.8162,-116.7117,39505
Warren,Virginia,"Warren, Virginia",38.9087,-78.2085,39492
Union,Arkansas,"Union, Arkansas",33.1713,-92.5972,39449
Isanti,Minnesota,"Isanti, Minnesota",45.5615,-93.2951,39430
Des Moines,Iowa,"Des Moines, Iowa",40.9232,-91.1815,39386
Person,North Carolina,"Person, North Carolina",36.39,-78.9718,39345
McClain,Oklahoma,"McClain, Oklahoma",35.0093,-97.4443,39247
Webster,Louisiana,"Webster, Louisiana",32.7135,-93.335,39242
LaGrange,Indiana,"LaGrange, Indiana",41.6426,-85.4265,39193
Rio Arriba,New Mexico,"Rio Arriba, New Mexico",36.5096,-106.6931,39159
Dallas,Alabama,"Dallas, Alabama",32.326,-87.1065,39149
Guernsey,Ohio,"Guernsey, Ohio",40.052,-81.4943,39111
Clatsop,Oregon,"Clatsop, Oregon",45.9951,-123.6558,39102
Madison,Idaho,"Madison, Idaho",43.7841,-111.6592,39100
Crawford,Kansas,"Crawford, Kansas",37.5073,-94.8518,38968
Franklin,Illinois,"Franklin, Illinois",37.9923,-88.9242,38923
Brown,South Dakota,"Brown, South Dakota",45.5898,-98.3516,38915
Clinton,Pennsylvania,"Clinton, Pennsylvania",41.2341,-77.6382,38915
Champaign,Ohio,"Champaign, Ohio",40.1377,-83.7695,38845
Calloway,Kentucky,"Calloway, Kentucky",36.621,-88.2722,38837
Natchitoches,Louisiana,"Natchitoches, Louisiana",31.7235,-93.0962,38769
Okmulgee,Oklahoma,"Okmulgee, Oklahoma",35.6466,-95.9643,38749
Clarion,Pennsylvania,"Clarion, Pennsylvania",41.1924,-79.421,38715
Woodford,Illinois,"Woodford, Illinois",40.7882,-89.2111,38700
Webster,Missouri,"Webster, Missouri",37.2809,-92.8759,38655
Scott,Missouri,"Scott, Missouri",37.053,-89.5685,38633
Wise,Virginia,"Wise, Virginia",36.9752,-82.6212,38486
Amador,California,"Amador, California",38.4464,-120.6511,38429
Albany,Wyoming,"Albany, Wyoming",41.6545,-105.7238,38390
Pontotoc,Oklahoma,"Pontotoc, Oklahoma",34.7281,-96.6844,38355
Montgomery,Indiana,"Montgomery, Indiana",40.0404,-86.8933,38287
Lawrence,Missouri,"Lawrence, Missouri",37.1064,-93.833,38204
Newberry,South Carolina,"Newberry, South Carolina",34.2898,-81.6001,38194
Defiance,Ohio,"Defiance, Ohio",41.3239,-84.4905,38160
Oconee,Georgia,"Oconee, Georgia",33.835,-83.4371,38132
Prince George,Virginia,"Prince George, Virginia",37.1865,-77.2242,38114
Graham,Arizona,"Graham, Arizona",32.9326,-109.8875,37996
Jefferson,Illinois,"Jefferson, Illinois",38.3005,-88.924,37985
Cass,Indiana,"Cass, Indiana",40.7615,-86.346,37880
Brown,Texas,"Brown, Texas",31.7743,-98.9998,37855
Marion,Illinois,"Marion, Illinois",38.6496,-88.919,37743
Oconto,Wisconsin,"Oconto, Wisconsin",45.0262,-88.2692,37646
Clinton,Illinois,"Clinton, Illinois",38.6065,-89.4225,37634
Chippewa,Michigan,"Chippewa, Michigan",46.3053,-84.5777,37629
Yadkin,North Carolina,"Yadkin, North Carolina",36.1605,-80.6652,37602
Colleton,South Carolina,"Colleton, South Carolina",32.8636,-80.6669,37585
Douglas,Minnesota,"Douglas, Minnesota",45.9337,-95.4535,37513
Essex,New York,"Essex, New York",44.1172,-73.7726,37459
Independence,Arkansas,"Independence, Arkansas",35.7415,-91.5697,37427
Dyer,Tennessee,"Dyer, Tennessee",36.0591,-89.4138,37416
Putnam,Indiana,"Putnam, Indiana",39.6663,-86.845,37384
Boone,Arkansas,"Boone, Arkansas",36.3086,-93.0915,37331
Graves,Kentucky,"Graves, Kentucky",36.7231,-88.6512,37248
Gloucester,Virginia,"Gloucester, Virginia",37.416,-76.5434,37222
Alexander,North Carolina,"Alexander, North Carolina",35.921,-81.177,37213
Covington,Alabama,"Covington, Alabama",31.2485,-86.4513,37200
Talbot,Maryland,"Talbot, Maryland",38.7713,-76.0971,37167
Alcorn,Mississippi,"Alcorn, Mississippi",34.8808,-88.5803,37090
Knox,Indiana,"Knox, Indiana",38.6891,-87.418,37065
Bryan,Georgia,"Bryan, Georgia",32.0145,-81.4436,37063
Escambia,Alabama,"Escambia, Alabama",31.1261,-87.1616,37057
Beauregard,Louisiana,"Beauregard, Louisiana",30.6484,-93.3434,37043
Jasper,Iowa,"Jasper, Iowa",41.686,-93.0538,36971
DeSoto,Florida,"DeSoto, Florida",27.1864,-81.8095,36903
Green,Wisconsin,"Green, Wisconsin",42.68,-89.6022,36896
Addison,Vermont,"Addison, Vermont",44.0309,-73.1408,36882
Greene,Pennsylvania,"Greene, Pennsylvania",39.8538,-80.2229,36870
Williams,Ohio,"Williams, Ohio",41.5603,-84.5882,36816
Matagorda,Texas,"Matagorda, Texas",28.8212,-96.011,36774
Finney,Kansas,"Finney, Kansas",38.0443,-100.737,36750
Steele,Minnesota,"Steele, Minnesota",44.0223,-93.226,36683
Dodge,Nebraska,"Dodge, Nebraska",41.5779,-96.654,36665
Isle of Wight,Virginia,"Isle of Wight, Virginia",36.8913,-76.7258,36627
Coshocton,Ohio,"Coshocton, Ohio",40.3017,-81.92,36585
Webster,Iowa,"Webster, Iowa",42.4279,-94.1818,36545
Hopkins,Texas,"Hopkins, Texas",33.1496,-95.564,36486
Floyd,Kentucky,"Floyd, Kentucky",37.5571,-82.7457,36456
Huntington,Indiana,"Huntington, Indiana",40.8292,-85.4881,36359
Howard,Texas,"Howard, Texas",32.3062,-101.4356,36349
Dare,North Carolina,"Dare, North Carolina",35.7795,-75.798,36222
Whitley,Kentucky,"Whitley, Kentucky",36.7581,-84.1452,36131
Uintah,Utah,"Uintah, Utah",40.1248,-109.5186,36084
Scotts Bluff,Nebraska,"Scotts Bluff, Nebraska",41.8506,-103.708,36074
Houghton,Michigan,"Houghton, Michigan",46.8978,-88.6874,36070
Louisa,Virginia,"Louisa, Virginia",37.9782,-77.9629,36040
Livingston,Illinois,"Livingston, Illinois",40.8916,-88.5577,36040
Delta,Michigan,"Delta, Michigan",45.9191,-86.9242,36026
Perry,Ohio,"Perry, Ohio",39.7371,-82.2361,36022
Orange,Virginia,"Orange, Virginia",38.2462,-78.0137,36010
Clark,Kentucky,"Clark, Kentucky",37.9708,-84.1474,35971
McLeod,Minnesota,"McLeod, Minnesota",44.8236,-94.2724,35832
Miami,Indiana,"Miami, Indiana",40.7695,-86.045,35815
Bennington,Vermont,"Bennington, Vermont",43.0354,-73.093,35746
Hill,Texas,"Hill, Texas",31.9907,-97.1324,35689
Monroe,Mississippi,"Monroe, Mississippi",33.8923,-88.4805,35673
Carlton,Minnesota,"Carlton, Minnesota",46.5924,-92.677,35633
Marshall,Mississippi,"Marshall, Mississippi",34.7623,-89.5031,35599
Ware,Georgia,"Ware, Georgia",31.0538,-82.4237,35593
Greenup,Kentucky,"Greenup, Kentucky",38.5457,-82.9223,35555
Cocke,Tennessee,"Cocke, Tennessee",35.9254,-83.1212,35552
Laclede,Missouri,"Laclede, Missouri",37.6583,-92.5903,35531
Barry,Missouri,"Barry, Missouri",36.7099,-93.8291,35530
Jasper,Texas,"Jasper, Texas",30.744,-94.0251,35506
Sagadahoc,Maine,"Sagadahoc, Maine",43.9598,-69.8546,35452
Oneida,Wisconsin,"Oneida, Wisconsin",45.7056,-89.5218,35381
Adams,Indiana,"Adams, Indiana",40.7457,-84.9366,35376
Cowley,Kansas,"Cowley, Kansas",37.2377,-96.8375,35351
Lincoln,Nebraska,"Lincoln, Nebraska",41.0477,-100.7453,35263
Williams,North Dakota,"Williams, North Dakota",48.3437,-103.4802,35208
Washington,Texas,"Washington, Texas",30.2145,-96.4034,35163
Greenbrier,West Virginia,"Greenbrier, West Virginia",37.947,-80.453,35155
Wapello,Iowa,"Wapello, Iowa",41.0306,-92.4095,35141
Fulton,Illinois,"Fulton, Illinois",40.4728,-90.2075,35092
Madison,Nebraska,"Madison, Nebraska",41.9167,-97.6008,35080
Scotland,North Carolina,"Scotland, North Carolina",34.8409,-79.4804,35076
Morrow,Ohio,"Morrow, Ohio",40.5241,-82.7941,35043
Lincoln,Oklahoma,"Lincoln, Oklahoma",35.703,-96.8809,34895
Sioux,Iowa,"Sioux, Iowa",43.0826,-96.1779,34827
Macon,North Carolina,"Macon, North Carolina",35.1505,-83.4221,34813
Silver Bow,Montana,"Silver Bow, Montana",45.9024,-112.6567,34770
Brookings,South Dakota,"Brookings, South Dakota",44.3697,-96.7905,34601
Clark,Wisconsin,"Clark, Wisconsin",44.7347,-90.6121,34579
Halifax,Virginia,"Halifax, Virginia",36.7669,-78.9366,34552
Fannin,Texas,"Fannin, Texas",33.5938,-96.1069,34537
Harvey,Kansas,"Harvey, Kansas",38.0432,-97.4272,34503
Steuben,Indiana,"Steuben, Indiana",41.6439,-85.0009,34453
Warren,Missouri,"Warren, Missouri",38.7646,-91.1607,34453
Seneca,New York,"Seneca, New York",42.7811,-76.8238,34390
Lee,Illinois,"Lee, Illinois",41.7461,-89.3003,34389
Lincoln,Mississippi,"Lincoln, Mississippi",31.5324,-90.454,34320
Morgan,Illinois,"Morgan, Illinois",39.7156,-90.2015,34247
Lee,Iowa,"Lee, Iowa",40.642,-91.4793,34227
Lincoln,Maine,"Lincoln, Maine",44.0664,-69.5435,34201
Panola,Mississippi,"Panola, Mississippi",34.3639,-89.9506,34190
Pulaski,Virginia,"Pulaski, Virginia",37.0636,-80.7144,34182
Ford,Kansas,"Ford, Kansas",37.6917,-99.888,34179
Monroe,Illinois,"Monroe, Illinois",38.2784,-90.1773,34168
Effingham,Illinois,"Effingham, Illinois",39.0598,-88.5899,34137
Harris,Georgia,"Harris, Georgia",32.736,-84.9089,34105
Geary,Kansas,"Geary, Kansas",39.0024,-96.7525,34025
Becker,Minnesota,"Becker, Minnesota",46.9347,-95.674,34011
Clarendon,South Carolina,"Clarendon, South Carolina",33.6658,-80.2164,33957
Nicollet,Minnesota,"Nicollet, Minnesota",44.3499,-94.2474,33954
Lincoln,Tennessee,"Lincoln, Tennessee",35.1405,-86.589,33924
Putnam,Ohio,"Putnam, Ohio",41.0221,-84.1317,33911
Hale,Texas,"Hale, Texas",34.0705,-101.8269,33826
Transylvania,North Carolina,"Transylvania, North Carolina",35.2021,-82.7982,33775
Whitley,Indiana,"Whitley, Indiana",41.1394,-85.5051,33730
Preston,West Virginia,"Preston, West Virginia",39.4693,-79.6682,33683
Chambers,Alabama,"Chambers, Alabama",32.9143,-85.392,33660
Gibson,Indiana,"Gibson, Indiana",38.3119,-87.5846,33656
Hot Spring,Arkansas,"Hot Spring, Arkansas",34.3176,-92.946,33597
Evangeline,Louisiana,"Evangeline, Louisiana",30.729,-92.4059,33589
Weakley,Tennessee,"Weakley, Tennessee",36.2983,-88.7178,33510
Jasper,Indiana,"Jasper, Indiana",41.023,-87.1161,33447
Miami,Kansas,"Miami, Kansas",38.5635,-94.8381,33417
Bladen,North Carolina,"Bladen, North Carolina",34.6146,-78.5636,33407
Botetourt,Virginia,"Botetourt, Virginia",37.5571,-79.8123,33343
Pike,Alabama,"Pike, Alabama",31.8027,-85.9409,33333
Wexford,Michigan,"Wexford, Michigan",44.3383,-85.5784,33256
Lyon,Kansas,"Lyon, Kansas",38.4562,-96.1526,33251
Platte,Nebraska,"Platte, Nebraska",41.5713,-97.5211,33174
Marion,Iowa,"Marion, Iowa",41.3344,-93.0994,33172
Logan,West Virginia,"Logan, West Virginia",37.8315,-81.9353,33154
Bureau,Illinois,"Bureau, Illinois",41.4041,-89.5287,33122
Daviess,Indiana,"Daviess, Indiana",38.7024,-87.072,33120
Emmet,Michigan,"Emmet, Michigan",45.521,-84.8908,33104
Morrison,Minnesota,"Morrison, Minnesota",46.0126,-94.2684,33064
Lawrence,Alabama,"Lawrence, Alabama",34.5217,-87.311,33058
Caroline,Maryland,"Caroline, Maryland",38.8717,-75.8316,33049
McCurtain,Oklahoma,"McCurtain, Oklahoma",34.1154,-94.7713,33016
Marshall,Tennessee,"Marshall, Tennessee",35.4689,-86.765,32965
Christian,Illinois,"Christian, Illinois",39.5458,-89.2773,32931
Iberville,Louisiana,"Iberville, Louisiana",30.2585,-91.3493,32822
Taos,New Mexico,"Taos, New Mexico",36.5783,-105.631,32786
Rhea,Tennessee,"Rhea, Tennessee",35.6087,-84.9244,32719
Accomack,Virginia,"Accomack, Virginia",37.7643,-75.6333,32673
Titus,Texas,"Titus, Texas",33.2166,-94.9657,32640
Bee,Texas,"Bee, Texas",28.4174,-97.7412,32611
Lafayette,Missouri,"Lafayette, Missouri",39.0656,-93.7855,32597
Montgomery,Kansas,"Montgomery, Kansas",37.1925,-95.7429,32521
Jackson,Ohio,"Jackson, Ohio",39.0196,-82.6184,32450
Lumpkin,Georgia,"Lumpkin, Georgia",34.5722,-84.0027,32402
Wakulla,Florida,"Wakulla, Florida",30.1673,-84.4007,32321
Chester,South Carolina,"Chester, South Carolina",34.692,-81.1595,32311
Randolph,Illinois,"Randolph, Illinois",38.0521,-89.8252,32295
Henry,Tennessee,"Henry, Tennessee",36.3318,-88.3013,32284
Clinton,Indiana,"Clinton, Indiana",40.3017,-86.4751,32273
Juneau,Alaska,"Juneau, Alaska",58.4546,-134.1739,32227
Jefferson,Indiana,"Jefferson, Indiana",38.7858,-85.4385,32201
Greene,Indiana,"Greene, Indiana",39.0364,-86.962,32159
Dorchester,Maryland,"Dorchester, Maryland",38.4829,-76.0125,32138
Bolivar,Mississippi,"Bolivar, Mississippi",33.7956,-90.8804,31848
Amherst,Virginia,"Amherst, Virginia",37.6048,-79.1452,31775
Polk,Missouri,"Polk, Missouri",37.6165,-93.4005,31748
Coos,New Hampshire,"Coos, New Hampshire",44.6896,-71.3056,31741
Claiborne,Tennessee,"Claiborne, Tennessee",36.4859,-83.6604,31732
Wasatch,Utah,"Wasatch, Utah",40.3308,-111.1682,31708
Pontotoc,Mississippi,"Pontotoc, Mississippi",34.2254,-89.0374,31618
Stone,Missouri,"Stone, Missouri",36.7469,-93.456,31615
Adams,Nebraska,"Adams, Nebraska",40.5245,-98.5012,31587
Polk,Minnesota,"Polk, Minnesota",47.7739,-96.4019,31521
Washington,Maine,"Washington, Maine",45.0306,-67.6288,31491
Franklin,Alabama,"Franklin, Alabama",34.4417,-87.8437,31466
Ottawa,Oklahoma,"Ottawa, Oklahoma",36.8355,-94.8104,31454
Jefferson Davis,Louisiana,"Jefferson Davis, Louisiana",30.2677,-92.8141,31441
Hardin,Ohio,"Hardin, Ohio",40.6616,-83.6595,31425
Wabash,Indiana,"Wabash, Indiana",40.8457,-85.794,31389
Pickens,Georgia,"Pickens, Georgia",34.4643,-84.4656,31387
Knox,Kentucky,"Knox, Kentucky",36.8906,-83.854,31365
Petersburg,Virginia,"Petersburg, Virginia",37.2043,-77.3913,31362
Huron,Michigan,"Huron, Michigan",43.8334,-83.0232,31349
Williamsburg,South Carolina,"Williamsburg, South Carolina",33.6199,-79.7277,31324
Marion,South Carolina,"Marion, South Carolina",34.0801,-79.3625,31308
Marshall,West Virginia,"Marshall, West Virginia",39.8606,-80.6634,31308
Jefferson,Washington,"Jefferson, Washington",47.7489,-123.5952,31285
Adams,Mississippi,"Adams, Mississippi",31.4829,-91.3535,31266
Schoharie,New York,"Schoharie, New York",42.5882,-74.4421,31222
Marshall,Kentucky,"Marshall, Kentucky",36.8834,-88.3294,31192
Stark,North Dakota,"Stark, North Dakota",46.8107,-102.6551,31081
Kleberg,Texas,"Kleberg, Texas",27.4337,-97.7273,30974
Muhlenberg,Kentucky,"Muhlenberg, Kentucky",37.2158,-87.142,30951
Morton,North Dakota,"Morton, North Dakota",46.7161,-101.2811,30868
Lassen,California,"Lassen, California",40.6736,-120.5943,30818
Smyth,Virginia,"Smyth, Virginia",36.8438,-81.537,30767
Mecklenburg,Virginia,"Mecklenburg, Virginia",36.6804,-78.3627,30728
Dillon,South Carolina,"Dillon, South Carolina",34.3915,-79.3789,30689
Clare,Michigan,"Clare, Michigan",43.9879,-84.8478,30651
Summit,Colorado,"Summit, Colorado",39.6342,-106.1164,30649
Vernon,Wisconsin,"Vernon, Wisconsin",43.5939,-90.8344,30633
Delta,Colorado,"Delta, Colorado",38.8614,-107.8629,30565
McDonough,Illinois,"McDonough, Illinois",40.4562,-90.6779,30479
Freeborn,Minnesota,"Freeborn, Minnesota",43.6738,-93.3488,30463
Gilmer,Georgia,"Gilmer, Georgia",34.6912,-84.4556,30414
Malheur,Oregon,"Malheur, Oregon",43.1934,-117.6231,30412
Caroline,Virginia,"Caroline, Virginia",38.0267,-77.3471,30381
Obion,Tennessee,"Obion, Tennessee",36.3582,-89.1488,30365
Elk,Pennsylvania,"Elk, Pennsylvania",41.4252,-78.6491,30340
Caledonia,Vermont,"Caledonia, Vermont",44.4647,-72.1022,30234
Sheridan,Wyoming,"Sheridan, Wyoming",44.79,-106.8793,30140
Gallia,Ohio,"Gallia, Ohio",38.8247,-82.3169,30088
Sumter,Georgia,"Sumter, Georgia",32.0399,-84.197,30064
Cass,Texas,"Cass, Texas",33.0775,-94.3436,30059
Dunklin,Missouri,"Dunklin, Missouri",36.2721,-90.0909,30027
Lake,Montana,"Lake, Montana",47.6459,-114.0893,30013
Franklin,Maine,"Franklin, Maine",44.974,-70.444,29982
Boyle,Kentucky,"Boyle, Kentucky",37.6244,-84.8668,29972
Marion,Alabama,"Marion, Alabama",34.1366,-87.8871,29866
Sanpete,Utah,"Sanpete, Utah",39.3739,-111.5763,29850
Carroll,Virginia,"Carroll, Virginia",36.7316,-80.7339,29801
Wayne,Georgia,"Wayne, Georgia",31.5514,-81.9167,29788
Austin,Texas,"Austin, Texas",29.887,-96.2779,29764
Lee,Georgia,"Lee, Georgia",31.7796,-84.1412,29502
Trempealeau,Wisconsin,"Trempealeau, Wisconsin",44.304,-91.3585,29499
White,Georgia,"White, Georgia",34.6464,-83.7471,29489
Hancock,West Virginia,"Hancock, West Virginia",40.5219,-80.5739,29383
Stoddard,Missouri,"Stoddard, Missouri",36.8556,-89.9443,29377
Neshoba,Mississippi,"Neshoba, Mississippi",32.7535,-89.1176,29332
Giles,Tennessee,"Giles, Tennessee",35.2021,-87.0348,29285
Cass,Minnesota,"Cass, Minnesota",46.9496,-94.3254,29268
Caddo,Oklahoma,"Caddo, Oklahoma",35.1744,-98.3751,29242
Garrett,Maryland,"Garrett, Maryland",39.5289,-79.2729,29235
Haralson,Georgia,"Haralson, Georgia",33.7942,-85.211,29227
Pine,Minnesota,"Pine, Minnesota",46.1207,-92.7413,29223
Leflore,Mississippi,"Leflore, Mississippi",33.5505,-90.3011,29222
Madison,Georgia,"Madison, Georgia",34.1278,-83.209,29218
Custer,Oklahoma,"Custer, Oklahoma",35.6388,-99.0015,29152
Park,Wyoming,"Park, Wyoming",44.5205,-109.5879,29148
Logan,Illinois,"Logan, Illinois",40.1245,-89.3675,29003
Mason,Michigan,"Mason, Michigan",43.9952,-86.25,28954
Randolph,West Virginia,"Randolph, West Virginia",38.7748,-79.8758,28930
Orange,Vermont,"Orange, Vermont",44.0057,-72.3768,28908
Jackson,West Virginia,"Jackson, West Virginia",38.8345,-81.6748,28907
Wythe,Virginia,"Wythe, Virginia",36.9171,-81.0787,28844
Montgomery,Illinois,"Montgomery, Illinois",39.231,-89.4789,28828
Powhatan,Virginia,"Powhatan, Virginia",37.5502,-77.9152,28815
Ellis,Kansas,"Ellis, Kansas",38.9147,-99.3173,28775
Jasper,South Carolina,"Jasper, South Carolina",32.4367,-81.0315,28657
Fredericksburg,Virginia,"Fredericksburg, Virginia",38.2992,-77.4872,28622
Fayette,Ohio,"Fayette, Ohio",39.5599,-83.4561,28620
Marion,Missouri,"Marion, Missouri",39.8059,-91.6224,28608
Jones,Georgia,"Jones, Georgia",33.0251,-83.5605,28579
McPherson,Kansas,"McPherson, Kansas",38.3917,-97.648,28567
Yazoo,Mississippi,"Yazoo, Mississippi",32.7803,-90.3964,28565
Palo Pinto,Texas,"Palo Pinto, Texas",32.7532,-98.313,28540
Marion,Tennessee,"Marion, Tennessee",35.1293,-85.622,28538
Jefferson,Idaho,"Jefferson, Idaho",43.8201,-112.3113,28534
Alpena,Michigan,"Alpena, Michigan",45.0349,-83.6258,28520
Morgan,Colorado,"Morgan, Colorado",40.2626,-103.8097,28517
Union,Mississippi,"Union, Mississippi",34.4905,-89.0039,28507
Copiah,Mississippi,"Copiah, Mississippi",31.8693,-90.4488,28501
Dinwiddie,Virginia,"Dinwiddie, Virginia",37.0759,-77.6323,28485
Tate,Mississippi,"Tate, Mississippi",34.6503,-89.9448,28404
Ripley,Indiana,"Ripley, Indiana",39.1035,-85.2624,28391
Hocking,Ohio,"Hocking, Ohio",39.4971,-82.4793,28390
Scott,Mississippi,"Scott, Mississippi",32.4064,-89.5376,28332
Van Wert,Ohio,"Van Wert, Ohio",40.8554,-84.5861,28261
Le Sueur,Minnesota,"Le Sueur, Minnesota",44.3714,-93.7301,28242
Baker,Florida,"Baker, Florida",30.3311,-82.2846,28211
Meade,Kentucky,"Meade, Kentucky",37.9697,-86.217,28182
San Jacinto,Texas,"San Jacinto, Texas",30.5795,-95.1669,28180
Codington,South Dakota,"Codington, South Dakota",44.9779,-97.1886,28026
Wells,Indiana,"Wells, Indiana",40.7292,-85.2212,28011
Pike,Ohio,"Pike, Ohio",39.0773,-83.0668,28000
Grimes,Texas,"Grimes, Texas",30.5435,-95.9855,27984
Henderson,Tennessee,"Henderson, Tennessee",35.6542,-88.388,27977
Glenn,California,"Glenn, California",39.5982,-122.392,27976
Cherokee,North Carolina,"Cherokee, North Carolina",35.1339,-84.0635,27969
Carroll,Arkansas,"Carroll, Arkansas",36.341,-93.5382,27965
Winchester,Virginia,"Winchester, Virginia",39.1735,-78.1746,27897
Carroll,Tennessee,"Carroll, Tennessee",35.9732,-88.4503,27886
Montgomery,Kentucky,"Montgomery, Kentucky",38.0335,-83.9131,27884
Washington,Indiana,"Washington, Indiana",38.6,-86.1053,27848
Garvin,Oklahoma,"Garvin, Oklahoma",34.7046,-97.3093,27835
Iroquois,Illinois,"Iroquois, Illinois",40.7473,-87.8243,27812
Adams,Ohio,"Adams, Ohio",38.8456,-83.472,27776
Lincoln,Wisconsin,"Lincoln, Wisconsin",45.3374,-89.7346,27744
San Miguel,New Mexico,"San Miguel, New Mexico",35.4804,-104.8158,27738
Meade,South Dakota,"Meade, South Dakota",44.5668,-102.7169,27717
Jennings,Indiana,"Jennings, Indiana",38.9969,-85.628,27710
Grant,New Mexico,"Grant, New Mexico",32.7389,-108.3824,27669
Del Norte,California,"Del Norte, California",41.7431,-123.8972,27495
Union,South Carolina,"Union, South Carolina",34.6893,-81.6194,27490
Door,Wisconsin,"Door, Wisconsin",44.9473,-87.3135,27472
Carroll,Ohio,"Carroll, Ohio",40.5796,-81.0897,27332
Wyoming,Pennsylvania,"Wyoming, Pennsylvania",41.5184,-76.0166,27327
Bradford,Florida,"Bradford, Florida",29.9499,-82.1688,27317
De Soto,Louisiana,"De Soto, Louisiana",32.0554,-93.7372,27289
Montgomery,North Carolina,"Montgomery, North Carolina",35.3325,-79.9055,27252
Henry,Ohio,"Henry, Ohio",41.3339,-84.0682,27208
Monroe,Georgia,"Monroe, Georgia",33.0139,-83.9187,27171
Mineral,West Virginia,"Mineral, West Virginia",39.4147,-78.9438,27167
Carter,Kentucky,"Carter, Kentucky",38.3182,-83.0495,27159
Peach,Georgia,"Peach, Georgia",32.5688,-83.8269,27145
Russell,Virginia,"Russell, Virginia",36.9339,-82.0954,27141
Hardee,Florida,"Hardee, Florida",27.4927,-81.81,27131
Toombs,Georgia,"Toombs, Georgia",32.1216,-82.3312,26972
Edgefield,South Carolina,"Edgefield, South Carolina",33.7722,-81.9664,26927
Uvalde,Texas,"Uvalde, Texas",29.3573,-99.7623,26920
Logan,Kentucky,"Logan, Kentucky",36.8597,-86.8789,26902
Orleans,Vermont,"Orleans, Vermont",44.8288,-72.2437,26901
Cibola,New Mexico,"Cibola, New Mexico",34.9125,-107.9997,26891
Simpson,Mississippi,"Simpson, Mississippi",31.9132,-89.9195,26888
Ashe,North Carolina,"Ashe, North Carolina",36.4345,-81.5005,26863
Mason,West Virginia,"Mason, West Virginia",38.7697,-82.0266,26820
White,Tennessee,"White, Tennessee",35.9264,-85.4552,26800
Bell,Kentucky,"Bell, Kentucky",36.7306,-83.6741,26791
Marlboro,South Carolina,"Marlboro, South Carolina",34.602,-79.6786,26753
Elmore,Idaho,"Elmore, Idaho",43.354,-115.4693,26743
Harlan,Kentucky,"Harlan, Kentucky",36.8569,-83.218,26699
Decatur,Georgia,"Decatur, Georgia",30.8783,-84.579,26682
Perry,Kentucky,"Perry, Kentucky",37.2443,-83.2215,26624
Fluvanna,Virginia,"Fluvanna, Virginia",37.8419,-78.2773,26594
Lewis,New York,"Lewis, New York",43.7847,-75.4488,26572
Decatur,Indiana,"Decatur, Indiana",39.307,-85.5011,26562
Juneau,Wisconsin,"Juneau, Wisconsin",43.9246,-90.1138,26478
Gillespie,Texas,"Gillespie, Texas",30.318,-98.9466,26459
Barton,Kansas,"Barton, Kansas",38.479,-98.7565,26453
Geneva,Alabama,"Geneva, Alabama",31.0951,-85.8391,26417
Oceana,Michigan,"Oceana, Michigan",43.6409,-86.2676,26416
Tillamook,Oregon,"Tillamook, Oregon",45.4637,-123.7127,26389
Johnson,Arkansas,"Johnson, Arkansas",35.5701,-93.4599,26372
Boone,Iowa,"Boone, Iowa",42.0365,-93.9316,26370
Currituck,North Carolina,"Currituck, North Carolina",36.4031,-76.0059,26363
Union,Oregon,"Union, Oregon",45.3102,-118.0088,26337
Woodford,Kentucky,"Woodford, Kentucky",38.0424,-84.7436,26318
Grayson,Kentucky,"Grayson, Kentucky",37.4608,-86.3439,26247
Upson,Georgia,"Upson, Georgia",32.8813,-84.2993,26236
Clay,Indiana,"Clay, Indiana",39.3928,-87.1158,26234
King George,Virginia,"King George, Virginia",38.2733,-77.1572,26229
Charlevoix,Michigan,"Charlevoix, Michigan",45.3022,-85.1263,26188
Sunflower,Mississippi,"Sunflower, Mississippi",33.6023,-90.5886,26168
Wasco,Oregon,"Wasco, Oregon",45.16,-121.1678,26130
West Baton Rouge,Louisiana,"West Baton Rouge, Louisiana",30.4634,-91.3127,26101
Montezuma,Colorado,"Montezuma, Colorado",37.3386,-108.5966,26031
Lauderdale,Tennessee,"Lauderdale, Tennessee",35.761,-89.6315,25989
Cherokee,Alabama,"Cherokee, Alabama",34.1759,-85.6038,25903
St. Francis,Arkansas,"St. Francis, Arkansas",35.022,-90.7478,25900
Cass,Nebraska,"Cass, Nebraska",40.9097,-96.1409,25888
Mille Lacs,Minnesota,"Mille Lacs, Minnesota",45.938,-93.6301,25865
McNairy,Tennessee,"McNairy, Tennessee",35.1755,-88.5636,25844
Hart,Georgia,"Hart, Georgia",34.3508,-82.9642,25773
Lyon,Minnesota,"Lyon, Minnesota",44.4135,-95.839,25758
Stephens,Georgia,"Stephens, Georgia",34.5539,-83.2935,25750
Somerset,Maryland,"Somerset, Maryland",38.1158,-75.7518,25729
Elbert,Colorado,"Elbert, Colorado",39.2866,-104.136,25717
Hardin,Tennessee,"Hardin, Tennessee",35.1987,-88.1845,25715
Audrain,Missouri,"Audrain, Missouri",39.2157,-91.8416,25644
Benton,Iowa,"Benton, Iowa",42.0802,-92.0657,25636
Allen,Louisiana,"Allen, Louisiana",30.6529,-92.8279,25618
Morehouse,Louisiana,"Morehouse, Louisiana",32.8202,-91.8018,25610
Texas,Missouri,"Texas, Missouri",37.3173,-91.965,25604
Taylor,Kentucky,"Taylor, Kentucky",37.3665,-85.3279,25571
Posey,Indiana,"Posey, Indiana",38.0218,-87.8685,25560
Franklin,Kansas,"Franklin, Kansas",38.5645,-95.2859,25558
Lawrence,South Dakota,"Lawrence, South Dakota",44.3586,-103.7923,25478
Hardeman,Tennessee,"Hardeman, Tennessee",35.2068,-88.9931,25443
Dickinson,Michigan,"Dickinson, Michigan",46.0091,-87.8702,25439
Cheboygan,Michigan,"Cheboygan, Michigan",45.4465,-84.4999,25418
Fannin,Georgia,"Fannin, Georgia",34.8641,-84.3198,25395
Tattnall,Georgia,"Tattnall, Georgia",32.0458,-82.0581,25382
Adair,Missouri,"Adair, Missouri",40.1906,-92.6007,25369
Barbour,Alabama,"Barbour, Alabama",31.8696,-85.3932,25361
Shelby,Texas,"Shelby, Texas",31.7924,-94.145,25349
Lamoille,Vermont,"Lamoille, Vermont",44.6058,-72.6414,25318
Salem,Virginia,"Salem, Virginia",37.2864,-80.0555,25317
Gladwin,Michigan,"Gladwin, Michigan",43.9907,-84.3883,25279
Prentiss,Mississippi,"Prentiss, Mississippi",34.6183,-88.5201,25255
Miller,Missouri,"Miller, Missouri",38.2145,-92.4284,25201
Iosco,Michigan,"Iosco, Michigan",44.3558,-83.6359,25197
Brown,Minnesota,"Brown, Minnesota",44.2421,-94.7276,25163
Fayette,Texas,"Fayette, Texas",29.8768,-96.9198,25141
Cleburne,Arkansas,"Cleburne, Arkansas",35.5381,-92.0267,25100
Nicholas,West Virginia,"Nicholas, West Virginia",38.2917,-80.7994,25078
Routt,Colorado,"Routt, Colorado",40.4851,-106.9913,25072
Plymouth,Iowa,"Plymouth, Iowa",42.7378,-96.2141,25068
Jackson,Oklahoma,"Jackson, Oklahoma",34.588,-99.4148,25063
Yates,New York,"Yates, New York",42.6334,-77.1055,25011
Marion,Mississippi,"Marion, Mississippi",31.2308,-89.8224,24990
Grant,Kentucky,"Grant, Kentucky",38.6488,-84.6246,24951
Randolph,Indiana,"Randolph, Indiana",40.1576,-85.0114,24926
Anson,North Carolina,"Anson, North Carolina",34.9738,-80.1027,24902
Randolph,Missouri,"Randolph, Missouri",39.4401,-92.4971,24878
Bremer,Iowa,"Bremer, Iowa",42.7746,-92.3181,24864
Washington,Missouri,"Washington, Missouri",37.9617,-90.8774,24860
Seminole,Oklahoma,"Seminole, Oklahoma",35.1675,-96.6155,24832
Grady,Georgia,"Grady, Georgia",30.8747,-84.2344,24828
Hickman,Tennessee,"Hickman, Tennessee",35.8032,-87.4733,24813
Chattooga,Georgia,"Chattooga, Georgia",34.475,-85.3453,24812
Milam,Texas,"Milam, Texas",30.7863,-96.9768,24770
Washington,Florida,"Washington, Florida",30.6106,-85.6653,24764
Abbeville,South Carolina,"Abbeville, South Carolina",34.2226,-82.4592,24627
Juniata,Pennsylvania,"Juniata, Pennsylvania",40.5311,-77.4022,24624
Dawson,Georgia,"Dawson, Georgia",34.4443,-84.1706,24536
Teller,Colorado,"Teller, Colorado",38.8822,-105.1618,24524
Rowan,Kentucky,"Rowan, Kentucky",38.1963,-83.4211,24507
Upshur,West Virginia,"Upshur, West Virginia",38.8978,-80.2334,24502
Todd,Minnesota,"Todd, Minnesota",46.0706,-94.8976,24494
Otsego,Michigan,"Otsego, Michigan",45.0214,-84.599,24490
Lincoln,Kentucky,"Lincoln, Kentucky",37.4554,-84.6608,24476
Aransas,Texas,"Aransas, Texas",28.1249,-96.9934,24462
Manistee,Michigan,"Manistee, Michigan",44.333,-86.0568,24457
Staunton,Virginia,"Staunton, Virginia",38.1593,-79.0611,24432
Mingo,West Virginia,"Mingo, West Virginia",37.7264,-82.1347,24290
